ID,Name,Address,Latitude,Longitude,Rank,Review Number,Mean Price,Category,Business Circle
1923271,"滨江壹号","滨江大道富城路拾步街由隆花园","31.23166","121.50149","五星商户","787","￥458","西餐","陆家嘴"
6199131,"博璨®德国啤酒餐厅(环球金融中心店)","世纪大道100号上海环球金融中心2楼","31.23456","121.50772","五星商户","984","￥183","其他","陆家嘴"
3181987,"恒悦轩精致香港粤菜(陆家嘴店)","世纪大道201号渣打银行大厦3-4楼","31.23585","121.50959","五星商户","2368","￥243","粤菜","陆家嘴"
27455075,"心上(金茂店)","世纪大道88号金茂大厦b1层","31.23526","121.50582","四星商户","83","￥79","粤菜","陆家嘴"
2696863,"上海环球金融中心观光厅","世纪大道100号上海环球金融中心94-100楼","31.23458","121.5077","五星商户","5316","￥147","城市观光","陆家嘴"
24011708,"乐凯撒比萨(正大广场店)","陆家嘴西路168号正大广场2楼","31.23685","121.49926","准五星商户","647","￥76","西餐","陆家嘴"
15117629,"百世达(正大店)","陆家嘴西路168号正大广场3楼25室","31.2368","121.49926","准五星商户","3852","￥71","西餐","陆家嘴"
32460314,"自然别谷(正大广场店)","陆家嘴西路168号正大广场8楼","31.23685","121.49926","准五星商户","213","￥122","韩国料理","陆家嘴"
6251124,"炉边情谈(正大广场店)","陆家嘴西路168号正大广场6楼45-46B号铺","31.2374","121.50012","准五星商户","8643","￥148","韩国料理","陆家嘴"
559844,"渝乡人家(陆家嘴店)","陆家嘴西路168号正大广场8楼","31.23674","121.49919","四星商户","4912","￥91","川菜","陆家嘴"
11575393,"Ashley(正大广场店)","陆家嘴西路168号正大广场8楼-02C~D号铺","31.23703","121.49928","准五星商户","3984","￥191","自助餐","陆家嘴"
5589814,"金牌外婆家(上海国金中心店)","世纪大道8号上海国金中心内LG2层55号","31.23648","121.50098","准五星商户","4102","￥92","本帮江浙菜","陆家嘴"
5735627,"王品台塑牛排(上海正大广场店)","陆家嘴西路168号正大广场8楼-02B号铺","31.2374","121.50012","五星商户","2240","￥368","西餐","陆家嘴"
23684229,"小猪猪(正大店)","陆家嘴西路168号正大广场8楼","31.23636","121.49812","准五星商户","2651","￥73","其他","陆家嘴"
20894897,"雕爷牛腩(正大广场店)","陆家嘴西路168号正大广场5楼","31.23703","121.49928","准五星商户","6700","￥172","其他","陆家嘴"
1945402,"唐宫海鲜舫(正大店)","陆家嘴西路168号正大广场6楼11-13号铺","31.23703","121.50011","五星商户","23989","￥106","粤菜","陆家嘴"
24608951,"原味主张椰子鸡(正大广场店)","正大广场8楼29号","31.23685","121.49926","五星商户","1034","￥118","火锅","陆家嘴"
21109684,"PizzaExpress 马上诺(IFC 国金中心店)","世纪大道8号陆家嘴国金中心A座B1楼LG1-40室","31.23591","121.50102","准五星商户","376","￥127","西餐","陆家嘴"
4088803,"莫尔顿牛排坊","世纪大道8号国金中心商场4楼15-16号商铺","31.2374","121.50126","准五星商户","3784","￥677","西餐","陆家嘴"
8959174,"乐新皇朝(国金中心店)","世纪大道8号IFC商场3楼L3-36号铺","31.2374","121.50126","准五星商户","3132","￥103","小吃快餐","陆家嘴"
581313,"桂花楼","富城路33号香格里拉大酒店浦江楼1楼","31.23554","121.49932","准五星商户","618","￥398","本帮江浙菜","陆家嘴"
22544751,"夏小馆(陆家嘴店)","正大广场8F","31.23752","121.50052","四星商户","1182","￥81","本帮江浙菜","陆家嘴"
4096520,"檬舒舒(上海环球金融店)","世纪大道100号上海环球金融中心B1楼B104号商铺","31.2346","121.50766","五星商户","5017","￥51","面包甜点","陆家嘴"
1934668,"广州蕉叶(正大广场店)","陆家嘴西路168号正大广场7楼0102号铺","31.23744","121.50013","准五星商户","20028","￥110","东南亚菜","陆家嘴"
3110236,"新元素(上海环球中心店)","世纪大道100号上海环球金融中心2楼","31.23457","121.50796","五星商户","1354","￥123","西餐","陆家嘴"
3263368,"蓝蛙(环球金融中心店)","世纪大道100号上海环球金融中心B109室","31.23457","121.50796","准五星商户","1957","￥119","西餐","陆家嘴"
3578740,"柚子(陆家嘴店)","陆家嘴环路1000号恒生大楼46楼","31.24025","121.50758","五星商户","8312","￥336","日本菜","陆家嘴"
501556,"宝莱纳餐厅(陆家嘴店)","浦东滨江大道滨江风光亭","31.23428","121.49829","准五星商户","4555","￥190","其他","陆家嘴"
21019682,"泰谷泰国休闲餐厅(正大店)","陆家嘴西路168号正大广场7楼23室","31.23703","121.49928","五星商户","3695","￥121","东南亚菜","陆家嘴"
8929854,"星期五餐厅(富都店)","富城路16号","31.23604","121.49781","五星商户","2178","￥160","西餐","陆家嘴"
13933958,"翠华餐厅(国金中心店)","世纪大道8号国金中心C座LG2楼45室","31.23646","121.50144","四星商户","1413","￥96","粤菜","陆家嘴"
1900096,"Hooters(正大广场店)","陆家嘴西路168号正大广场1楼-19号铺","31.23674","121.49919","准五星商户","2511","￥144","西餐","陆家嘴"
3891889,"丽思卡尔顿酒店","世纪大道8号上海国金中心","31.23661","121.50125","五星商户","3953","￥1452","五星级/豪华型","陆家嘴"
4092751,"正斗粥面专家(国金中心店)","世纪大道8号国金中心D座L3楼L3-9室","31.23684","121.50218","准五星商户","5947","￥99","粤菜","陆家嘴"
4505769,"炉匠炉端烧•酒(国金中心店)","世纪大道8号国金中心商场4楼L4-22号商铺","31.23663","121.50131","准五星商户","1401","￥353","日本菜","陆家嘴"
4074133,"百丽宫影城(IFC商场店)","浦东新区 世纪大道8号国金中心商场LG1楼","31.23764","121.50137","五星商户","10393","￥61","电影院","陆家嘴"
1795441,"上海海洋水族馆","陆家嘴环路1388号","31.24065","121.50168","准五星商户","7108","￥160","动植物园","陆家嘴"
5335019,"大茴香(上海环球金融中心店)","世纪大道100号上海环球金融中心2楼206室","31.23449","121.50769","准五星商户","2085","￥91","东南亚菜","陆家嘴"
22445243,"Salad Express 沙拉主义","陆家嘴西路168号正大广场B2—17","31.23752","121.50052","五星商户","697","￥53","西餐","陆家嘴"
4127403,"Haiku by hatsune 隐泉之语日式料理(国金中心店)","世纪大道8号国金中心商场LG1楼36号铺","31.23664","121.50131","准五星商户","1691","￥193","日本菜","陆家嘴"
503176,"上海小南国(正大广场店)","陆家嘴西路168号正大广场9楼“任何信息以门店为准”","31.23673","121.49917","准五星商户","8551","￥195","本帮江浙菜","陆家嘴"
22171611,"孔乙己尚宴","滨江大道2100","31.24371","121.50476","五星商户","270","￥300","本帮江浙菜","陆家嘴"
21173577,"耶里夏丽新疆餐厅(正大陆家嘴店)","陆家嘴西路168号正大广场2楼17-18号","31.23703","121.49928","五星商户","5094","￥91","新疆菜","陆家嘴"
500164,"东方明珠旋转餐厅","世纪大道1号东方明珠电视塔","31.23913","121.49966","准四星商户","1946","￥312","自助餐","陆家嘴"
8876744,"文华厨房","浦东南路111号上海浦东文华东方酒店LG层","31.24362","121.50727","准五星商户","1103","￥327","自助餐","陆家嘴"
17661660,"Miss Ma马小姐-蔬彩马卡龙专门店","世纪大道100号环球金融中心3楼310室","31.23462","121.50772","准五星商户","607","￥58","面包甜点","陆家嘴"
19790099,"元素西餐厅","陆家嘴环路1288号上海凯宾斯基大酒店1楼","31.24218","121.50401","五星商户","700","￥250","自助餐","陆家嘴"
3891871,"Flair Rooftop","世纪大道8号上海国金中心丽思卡尔顿酒店58楼","31.23663","121.50131","五星商户","1664","￥292","其他","陆家嘴"
1928641,"浦东香格里拉大酒店","富城路33号","31.23564","121.49935","五星商户","5515","￥1006","五星级/豪华型","陆家嘴"
3699892,"晶采轩(浦东店)","银城中路68号时代金融中心2-3楼","31.24128","121.5067","准五星商户","925","￥185","粤菜","陆家嘴"
5864562,"3D魔幻趣味馆","滨江大道2789号外滩观光隧道B2楼","31.23884","121.49694","准五星商户","986","￥40","展馆展览","陆家嘴"
566514,"翡翠36餐厅","富城路33号香格里拉大酒店紫金楼36楼","31.23571","121.4991","准五星商户","1120","￥481","西餐","陆家嘴"
23100214,"成隆行蟹王府(金茂店)","世纪大道88号裙房金茂时尚生活馆6楼","31.23555","121.50618","五星商户","1011","￥367","蟹宴","陆家嘴"
19281854,"星米年糕火锅(上海正大广场店)","陆家嘴西路168号正大广场B2层1A-01","31.23703","121.49928","四星商户","3625","￥57","韩国料理","陆家嘴"
506785,"浦东香格里拉怡咖啡","富城路33号浦东香格里拉大酒店紫金楼2楼","31.23571","121.4991","五星商户","4883","￥341","自助餐","陆家嘴"
3020776,"俏江南(上海环球金融中心店)","世纪大道100号上海环球金融中心3楼307室http://www.southbeauty.com","31.23457","121.50769","五星商户","3409","￥139","川菜","陆家嘴"
8845597,"小辉哥火锅(正大广场店)","陆家嘴西路168号正大广场8楼02A号铺","31.2374","121.50012","准五星商户","6612","￥132","火锅","陆家嘴"
22466925,"Win House(正大广场店)","正大广场陆家嘴西路168号1楼GF27/GF37","31.23731","121.49912","五星商户","765","￥116","西餐","陆家嘴"
13795581,"大蔬无界(环球金融中心馆)","世纪大道100号上海环球金融中心3楼","31.23457","121.50796","五星商户","914","￥184","素菜","陆家嘴"
584350,"La Verbena","滨江大道2792号","31.24097","121.49755","准五星商户","1297","￥418","西餐","陆家嘴"
3285346,"拉蒂娜Latina(陆家嘴店)","陆家嘴环路165号2楼","31.23548","121.50101","准五星商户","1508","￥220","西餐","陆家嘴"
1795417,"东方明珠塔","世纪大道1号","31.23976","121.49964","准五星商户","5476","￥169","城市观光","陆家嘴"
22681532,"Aza Aza！芝心年糕料理(正大广场店)","陆家嘴西路168号正大广场8楼","31.2374","121.50012","准五星商户","684","￥57","韩国料理","陆家嘴"
8729366,"皇玺酒家","浦东南路27号","31.24353","121.50653","五星商户","1496","￥191","海鲜","陆家嘴"
22376725,"Hatsune 隐泉日式料理(滨江店)","陆家嘴滨江大道2100号","31.24382","121.50591","准五星商户","131","￥176","日本菜","陆家嘴"
21294388,"春在（上海菜）","富城路182号","31.23333","121.49995","准五星商户","435","￥144","本帮江浙菜","陆家嘴"
10022263,"旺池川菜(正大店)","陆家嘴西路168号正大广场7楼-01号铺","31.23778","121.50035","五星商户","2939","￥83","川菜","陆家嘴"
22824497,"潮堂(上海环球金融中心店)","世纪大道100号上海环球金融中心3楼","31.23456","121.5073","准五星商户","405","￥114","粤菜","陆家嘴"
24338791,"2015小黄人主题展","东方明珠城市广场8号门","31.23955","121.50079","四星商户","803","￥117","文化艺术","陆家嘴"
2064157,"张生记(正大广场店)","陆家嘴西路168号正大广场6楼42-44号铺","31.23738","121.50015","四星商户","4614","￥148","本帮江浙菜","陆家嘴"
19438265,"东方明珠Coca-Cola欢乐餐厅(可口可乐欢乐餐厅)","世纪大道1号东方明珠塔8号门,地铁2号线陆家嘴站1号出口对面","31.23936","121.50111","准五星商户","2136","￥200","自助餐","陆家嘴"
4120574,"海逸海鲜(滨江大道店)","滨江大道2450号","31.24283","121.50218","五星商户","2092","￥185","粤菜","陆家嘴"
24711011,"猫山王榴莲MusangKing(猫叔正大广场店)","陆家嘴西路168号正大广场2楼2f12","31.23685","121.49926","五星商户","653","￥38","面包甜点","陆家嘴"
502532,"俏江南(正大广场店)","陆家嘴西路168号正大广场10楼","31.23732","121.49997","准五星商户","8998","￥157","川菜","陆家嘴"
503292,"上海金茂君悦咖啡厅","世纪大道88号金茂君悦大酒店54层","31.23488","121.50559","准五星商户","2947","￥369","自助餐","陆家嘴"
1862086,"正大广场","陆家嘴西路168号","31.23636","121.49812","准五星商户","8445","￥188","综合商场","陆家嘴"
5363770,"上海环球金融中心","世纪大道100号上海环球金融中心","31.23456","121.50795","五星商户","725","￥147","综合商场","陆家嘴"
4074265,"金牛苑(国金店)","世纪大道8号上海国金中心3楼L3-19号","31.2374","121.50126","准五星商户","2834","￥174","东南亚菜","陆家嘴"
2758972,"上海小南国(国会店)","滨江大道2727号东方滨江大酒店7楼","31.23925","121.49696","准五星商户","674","￥216","本帮江浙菜","陆家嘴"
502186,"上海小南国(国发店)","浦东南路500号国家开发银行4楼","31.23697","121.51039","准五星商户","1755","￥161","本帮江浙菜","陆家嘴"
4676107,"天泰餐厅(国金中心店)","世纪大道8号国金中心4楼L4-05","31.23661","121.50124","准五星商户","2472","￥179","东南亚菜","陆家嘴"
8842719,"泰亭泰国时尚餐厅 Thai in(滨江大道店)","陆家嘴滨江大道2600号","31.24212","121.49996","五星商户","1303","￥235","东南亚菜","陆家嘴"
505181,"喜多屋国际海鲜料理(正大广场店)","陆家嘴西路168号正大广场7楼04-06号铺","31.23674","121.49919","四星商户","17905","￥248","海鲜","陆家嘴"
17874542,"同源堂蔬食馆","张杨路500号华润时代广场4楼","31.22716","121.51718","五星商户","752","￥91","素菜","八佰伴"
2420359,"柏悦酒店","世纪大道100号上海环球金融中心79-93楼","31.2345","121.50775","准五星商户","759","￥2147","五星级/豪华型","陆家嘴"
506589,"老山东","浦东南路379号金穗大厦6楼","31.23925","121.51047","五星商户","3575","￥112","其他","陆家嘴"
6029790,"浦东四季酒店","世纪大道210号二十一世纪大厦30-41楼","31.23412","121.51023","五星商户","481","￥1733","五星级/豪华型","陆家嘴"
22508939,"和府捞面(96广场店)","东方路796号96广场1楼","31.22736","121.52523","准五星商户","1670","￥43","小吃快餐","陆家嘴"
501060,"上海金茂君悦烧烤餐厅","世纪大道88号金茂君悦大酒店56楼","31.23504","121.50581","五星商户","579","￥351","西餐","陆家嘴"
17943744,"拉祜纳云南时尚餐厅","陆家嘴环路1188号R-1商铺","31.24184","121.50571","四星商户","939","￥109","云南菜","陆家嘴"
1795153,"星美国际影城(正大店)","浦东新区 陆家嘴西路168号正大广场8楼","31.23704","121.50011","准五星商户","20106","￥52","电影院","陆家嘴"
4074148,"国金中心商场","世纪大道8号","31.23595","121.50305","五星商户","2162","￥2698","综合商场","陆家嘴"
6311018,"一風堂拉面(国金中心店)","世纪大道8号国金中心LG1-79-80号","31.2374","121.50126","四星商户","2675","￥67","日本菜","陆家嘴"
3566212,"上海凯宾斯基大酒店","陆家嘴环路1288号","31.24274","121.50411","四星商户","827","￥1215","五星级/豪华型","陆家嘴"
4621834,"板长寿司(国金中心店)","世纪大道8号国金中心地下1楼LG1-18号商铺","31.23671","121.50138","四星商户","6557","￥92","日本菜","陆家嘴"
5331155,"上海浦东文华东方酒店","浦东南路111号","31.24283","121.50726","五星商户","449","￥1955","五星级/豪华型","陆家嘴"
5575172,"食之秘(正大广场店)","陆家嘴西路168号正大广场5楼24-25号铺","31.23703","121.50011","准五星商户","5119","￥62","面包甜点","陆家嘴"
4063642,"俏江南(国金中心店)","世纪大道8号国金中心商场4楼","31.2365","121.50115","准五星商户","2015","￥205","川菜","陆家嘴"
22153184,"Dolci Vizi","陆家嘴西路168号正大广场B2楼","31.23752","121.50052","准五星商户","327","￥77","西餐","陆家嘴"
4673323,"浦江二号","滨江大道2250号","31.24348","121.50376","五星商户","115","￥1045","粤菜","陆家嘴"
5606435,"震旦博物馆","富城路99号震旦国际大厦内","31.23484","121.49954","五星商户","484","￥57","展馆展览","陆家嘴"
16821355,"丸龟制面(浦东正大广场店)","陆家嘴西路168号正大广场B2楼","31.23738","121.50016","准五星商户","1387","￥35","日本菜","陆家嘴"
8947458,"MARINA By DN 望海西餐厅","陆家嘴滨江大道2972号","31.23765","121.49551","准五星商户","422","￥451","西餐","陆家嘴"
2326123,"港丽餐厅(正大店)","陆家嘴西路168号正大广场7楼08A号铺","31.2374","121.50012","四星商户","8037","￥102","粤菜","陆家嘴"
500787,"粤珍轩","世纪大道88号金茂君悦大酒店55楼","31.23486","121.50558","五星商户","857","￥422","粤菜","陆家嘴"
4197182,"望湘园(正大广场店)","陆家嘴西路168号正大广场4楼29号铺","31.23674","121.49919","五星商户","5122","￥82","湘菜","陆家嘴"
2047657,"上海金茂君悦大酒店","世纪大道88号金茂大厦53-87楼","31.23526","121.50584","准五星商户","1460","￥1549","五星级/豪华型","陆家嘴"
17704112,"Ritz Carlton Buffet","世纪大道8号国金中心丽思卡尔顿酒店52楼","31.23646","121.50103","五星商户","156","￥453","自助餐","陆家嘴"
5574643,"鹿港小镇(正大店)","陆家嘴西路168号正大广场8楼810室","31.23698","121.49968","四星商户","4001","￥95","台湾菜","陆家嘴"
19592702,"悦泰(金茂店)","金茂大厦裙楼5楼","31.23546","121.50586","准五星商户","903","￥159","东南亚菜","陆家嘴"
2237611,"金茂大厦88层观光厅","世纪大道88号金茂大厦88楼","31.23509","121.50548","准五星商户","841","￥105","城市观光","陆家嘴"
8876721,"雍颐庭","浦东南路111号文华东方酒店LG层","31.24362","121.50727","五星商户","327","￥552","本帮江浙菜","陆家嘴"
4049593,"海蓝意大利餐厅","陆家嘴环路1288号上海凯宾斯基大酒店2楼","31.24233","121.5042","五星商户","154","￥206","西餐","陆家嘴"
4277498,"苏浙总会","世纪大道8号国金中心4楼L4-13","31.2374","121.50126","准五星商户","817","￥455","本帮江浙菜","陆家嘴"
4088794,"意索娜意大利餐厅","世纪大道8号上海国金中心L4楼17号铺(浦东香格里拉对面）","31.23663","121.50131","准五星商户","1072","￥310","西餐","陆家嘴"
5175874,"浦之舟","滨江大道3688号","31.22953","121.50398","五星商户","204","￥561","其他","陆家嘴"
2874784,"世纪100酒吧","世纪大道100号上海环球金融中心上海柏悦酒店92楼","31.23457","121.50796","准五星商户","501","￥169","其他","陆家嘴"
5374910,"避风塘(正大广场店)","陆家嘴西路168号正大广场8楼27号铺","31.2374","121.50013","准五星商户","3195","￥79","粤菜","陆家嘴"
21761208,"Vapiano 新意尚","富城路24号-26号","31.23562","121.49809","准五星商户","250","￥106","西餐","陆家嘴"
21678721,"爱玲EILEEN","世纪大道100号环球金融中心3楼","31.23398","121.50685","五星商户","330","￥308","本帮江浙菜","陆家嘴"
4073998,"利苑(国金中心店)","世纪大道8号上海国金中心3楼L3-17&18","31.23664","121.50122","准五星商户","2435","￥399","粤菜","陆家嘴"
5386310,"和良形象(陆家嘴店)","东昌路580号","31.23276","121.51316","五星商户","1049","￥274","美发","陆家嘴"
5213564,"TAVOLA","滨江大道2500号,东园路路口","31.24262","121.50148","准五星商户","1039","￥285","西餐","陆家嘴"
17626076,"小螺莉螺蛳粉(栖霞路店)","栖霞路17号","31.23524","121.51399","准五星商户","668","￥27","小吃快餐","陆家嘴"
23093341,"赤坂舞马雅(上海环球金融中心店)","世纪大道100号3F","31.23558","121.50773","五星商户","100","￥104","日本菜","陆家嘴"
2440144,"裕景大饭店","浦东大道535号裕景大饭店内","31.2409","121.52017","四星商户","915","￥613","五星级/豪华型","陆家嘴"
3891061,"感智盲人保健会所(张杨路店)","浦东新区张杨路1519号","31.2338","121.53495","准五星商户","2031","￥63","足疗按摩","陆家嘴"
22383451,"柏悦酒店87层自助餐厅","世纪大道100号上海环球金融中心87层","31.23456","121.5073","四星商户","65","￥498","自助餐","陆家嘴"
22994243,"海鲜姿造-鲔牛汇","世纪大道88号金茂大厦裙楼3楼","31.23526","121.50582","四星商户","543","￥334","海鲜","陆家嘴"
15097663,"Big Bus双层观光巴士","九江路588号(近湖北路)","31.22908","121.47235","五星商户","132","￥82","城市观光","陆家嘴"
4091239,"SCENA意味轩","世纪大道8号丽思卡尔顿酒店52楼","31.23663","121.50131","五星商户","1030","￥594","西餐","陆家嘴"
500765,"意庐","世纪大道88号金茂君悦大酒店56楼","31.23528","121.50584","四星商户","757","￥369","西餐","陆家嘴"
5500921,"小金牛(正大广场店)","陆家嘴西路168号正大广场8楼21号铺","31.2374","121.50012","四星商户","1959","￥77","东南亚菜","陆家嘴"
564205,"东方滨江大酒店滨江厅","滨江大道2727号东方滨江大酒店1楼","31.23947","121.49694","准五星商户","988","￥156","自助餐","陆家嘴"
18229706,"Urban Soup Kitchen(环球金融中心店)","世纪大道100号环球金融中心B106-1楼","31.23494","121.50767","准五星商户","221","￥52","西餐","陆家嘴"
4535604,"PANKOO釜山料理(国金中心店)","世纪大道8号国金中心商场4楼L4-18","31.23664","121.50131","四星商户","2374","￥99","韩国料理","陆家嘴"
15089712,"蓝蛙(正大店)","富城路12-14号","31.23604","121.49807","准五星商户","712","￥130","西餐","陆家嘴"
21747623,"醉辉皇(陆家嘴店)","花园石桥路66号东亚银行金融大厦3楼","31.23427","121.50202","四星商户","196","￥127","海鲜","陆家嘴"
17986642,"香淳湾","滨江大道1836号（浦东南路到底右转）","31.2444","121.50698","准五星商户","370","￥408","粤菜","陆家嘴"
6854819,"云庐","滨江大道2300号","31.24321","121.50344","五星商户","97","￥759","其他","陆家嘴"
1919707,"新元素(正大店)","陆家嘴西路168号正大广场1楼17~18号铺","31.23685","121.49929","四星商户","2937","￥122","西餐","陆家嘴"
501019,"廊亦舫酒楼(正大店)","陆家嘴西路168号正大广场5楼23号铺","31.2374","121.50012","四星商户","4291","￥151","本帮江浙菜","陆家嘴"
8876725,"58° 扒房","浦东南路111号文华东方酒店行政公寓大堂1层","31.24364","121.50722","五星商户","410","￥571","西餐","陆家嘴"
24788617,"卡尔沙龙(华润八佰伴)","张杨路500号华润时代广场315","31.22734","121.51783","五星商户","104","￥383","美发","八佰伴"
504215,"天水恋意大利餐厅","滨江大道3082号","31.23484","121.49866","四星商户","1302","￥171","西餐","陆家嘴"
6305810,"古意湘味浓(国金店)","世纪大道8号国金中心LG1楼LG1-81","31.23646","121.50103","准四星商户","884","￥126","湘菜","陆家嘴"
16821374,"禾绿回转寿司(正大广场店)","陆家嘴西路168号正大广场B2楼","31.23743","121.50019","四星商户","1160","￥83","日本菜","陆家嘴"
4514690,"COVA(国金中心)","世纪大道8号国金中心商场L1楼30号商铺","31.2374","121.50126","准五星商户","1383","￥157","面包甜点","陆家嘴"
1901602,"必胜客(正大店)","陆家嘴西路168号正大广场5楼","31.23703","121.50011","四星商户","1787","￥79","西餐","陆家嘴"
19433031,"面屋武藏(IFC店)","世纪大道8号陆家嘴国金中心D座LG2楼C-1","31.23591","121.50102","准五星商户","2001","￥55","日本菜","陆家嘴"
5500928,"韩林炭烤(正大广场店)","陆家嘴西路168号正大广场8楼26号铺","31.23674","121.49919","四星商户","3118","￥97","韩国料理","陆家嘴"
18721096,"卡尔沙龙(全球首间美发博物馆店)","张扬路500号华润时代广场314","31.22699","121.51701","五星商户","197","None","美发","八佰伴"
23416337,"红领巾轰趴馆(中山公园店)","长宁路1551弄（遵义路797弄）虹桥国际大厦4号楼","31.21669","121.40799","五星商户","101","￥84","轰趴馆","中山公园"
2272357,"居食屋和民(正大广场店)","陆家嘴西路168号正大广场8楼-22号铺o5B","31.23704","121.50012","四星商户","6765","￥101","日本菜","陆家嘴"
21314207,"翠华餐厅(正大广场分店)","陆家嘴西路168号正大广场6楼10","31.23703","121.49928","准四星商户","655","￥94","粤菜","陆家嘴"
18138132,"来我家吧轰趴馆","昌邑路600号","31.24147","121.52198","五星商户","133","￥90","轰趴馆","陆家嘴"
2095639,"万和亚隆国际酒店","崮山路688号","31.23986","121.55975","准四星商户","691","￥259","四星级/高档型","陆家嘴"
1928773,"科瓦齿科(金茂大厦门诊)","世纪大道88号金茂大厦裙房时尚生活中心s10-s19","31.23536","121.5053","四星商户","533","￥1740","齿科","陆家嘴"
1894408,"上海大自然野生昆虫馆","丰和路1号","31.24044","121.49772","四星商户","1490","￥53","动植物园","陆家嘴"
2069893,"晶浦会(陆家嘴店)","花园石桥路33号花旗集团大厦4楼","31.23403","121.5008","准五星商户","945","￥354","粤菜","陆家嘴"
6087018,"! WANT POWER(金茂店)","世纪大道88号金茂大厦裙房1楼1S-05室","31.23509","121.50546","五星商户","143","￥41","西餐","陆家嘴"
18385564,"Gloria Jean's Coffees(正大广场店)","陆家嘴西路168号正大广场1F30A室商铺","31.23703","121.49928","准五星商户","392","￥39","咖啡厅","陆家嘴"
2815084,"浦东由由喜来登酒店盛宴西餐厅","浦建路38号喜来登由由酒店1楼","31.2092","121.51827","四星商户","722","￥206","自助餐","塘桥"
1794811,"好乐迪(正大店)","陆家嘴西路168号正大广场8楼05号铺","31.23674","121.49919","准五星商户","5668","￥52","KTV","陆家嘴"
18231840,"原汁缘味过桥米线(正大广场店)","陆家嘴西路168号陆家嘴正大广场B2楼","31.23703","121.50011","四星商户","2863","￥25","小吃快餐","陆家嘴"
16970164,"万信酒店(陆家嘴店)","南洋泾路578号","31.23278","121.55656","准五星商户","303","￥336","四星级/高档型","陆家嘴"
2869393,"世纪100餐厅","世纪大道100号上海环球金融中心上海柏悦酒店91-93楼","31.23457","121.50796","准五星商户","1109","￥810","西餐","陆家嘴"
2120617,"鼎泰丰(上海正大店)","陆家嘴西路168号正大广场3楼24号铺","31.23703","121.50011","四星商户","3422","￥129","小吃快餐","陆家嘴"
26986409,"蜜途翻糖蛋糕定制(国金ifc店)","世纪大道18号","31.23624","121.5018","五星商户","36","￥1999","面包甜点","陆家嘴"
4132319,"鹿港小镇(星展店)","陆家嘴环路1318号星展银行大厦B1楼06室","31.24177","121.50361","四星商户","929","￥99","台湾菜","陆家嘴"
2054935,"汉堡王(正大店)","陆家嘴西路168号正大广场5楼东区32号铺","31.23673","121.49906","四星商户","3425","￥31","小吃快餐","陆家嘴"
4279931,"食尚港丽(国金店)","世纪大道8号国金中心商场地下1楼LG1-20号商铺","31.23662","121.50127","四星商户","3149","￥106","粤菜","陆家嘴"
3994102,"阿尔贝鲁西班牙餐厅","陆家嘴环路1288号上海凯宾斯基大酒店2楼","31.24233","121.5042","准五星商户","183","￥167","西餐","陆家嘴"
4135267,"Royce'  Chocolates(国金中心店)","世纪大道8号上海国金中心LG2楼city'super内","31.23663","121.50122","准五星商户","1725","￥138","面包甜点","陆家嘴"
8863893,"早安巴黎(正大广场店)","陆家嘴西路168号正大广场B2楼","31.23741","121.50013","准五星商户","1481","￥35","面包甜点","陆家嘴"
10337065,"麝香猫咖啡餐厅(滨江店)","陆家嘴西路2967号滨江大道富都段","31.23537","121.4972","准五星商户","779","￥81","咖啡厅","陆家嘴"
6030491,"小杨生煎(东方明珠店)","陆家嘴环路1406-1408号","31.23942","121.5014","四星商户","1659","￥23","小吃快餐","陆家嘴"
4074034,"丽思卡尔顿酒店金轩中餐厅","世纪大道8号上海国金中心丽思卡尔顿酒店53楼","31.23642","121.50124","准五星商户","453","￥606","粤菜","陆家嘴"
6182586,"浦东四季酒店尚席","世纪大道210号四季酒店2楼","31.23433","121.51024","五星商户","297","￥437","粤菜","陆家嘴"
5279694,"屯京拉面(上海环球金融中心店)","世纪大道100号上海环球金融中心B1楼","31.2351","121.50775","准五星商户","1981","￥53","日本菜","陆家嘴"
17724647,"糖纸甜品(正大广场店)","陆家嘴西路168号正大广场3楼","31.23749","121.4999","四星商户","2553","￥25","面包甜点","陆家嘴"
11550270,"刘娟美甲沙龙(国金中心店IFC店)","世纪大道8号国金中心商场B2楼LG2-6铺","31.23664","121.50131","五星商户","315","￥514","美甲","陆家嘴"
12950630,"大头仔特色海鲜面馆(栖霞路店)","栖霞路21号","31.23539","121.51404","五星商户","748","￥29","小吃快餐","陆家嘴"
13661401,"Fuel Espresso","世纪大道8号国金中心商场2楼44号","31.23662","121.50129","准五星商户","483","￥50","咖啡厅","陆家嘴"
2047735,"富临轩(正大店)","陆家嘴西路168号正大广场4楼30-31号铺","31.23674","121.49919","四星商户","1031","￥126","粤菜","陆家嘴"
3076249,"鼎泰丰(上海环球店)","世纪大道100号上海环球金融中心3楼","31.23459","121.50769","四星商户","805","￥152","小吃快餐","陆家嘴"
26231078,"沃歌斯(花木路店)","上海市浦东新区锦康路252号101室","31.2131","121.53589","五星商户","59","￥93","西餐","陆家嘴"
6182580,"浦东四季酒店Camelia","世纪大道210号上海浦东四季酒店1楼","31.23424","121.51013","准五星商户","622","￥275","西餐","陆家嘴"
4287886,"天家•金枪鱼世家(ifc店)","世纪大道8号ifc商场4楼L4-11","31.23742","121.50128","四星商户","1717","￥229","日本菜","陆家嘴"
4182478,"hoF(陆家嘴店)","陆家嘴环路1318号星展银行大厦下沉式广场8号商铺","31.24177","121.50361","准五星商户","1130","￥73","面包甜点","陆家嘴"
5592825,"花ちゃんの台所(1号店)","栖霞路41号","31.23587","121.51522","准五星商户","663","￥126","日本菜","陆家嘴"
23405963,"Grosfairy胖仙女(IFC国金中心)","世纪大道8号国金中心商场LG2层 A15","31.23764","121.50137","准五星商户","164","￥26","面包甜点","陆家嘴"
6134301,"八海山(希望大厦店)","世纪大道1777号东方希望大厦1楼","31.22353","121.53804","准五星商户","194","￥188","日本菜","陆家嘴"
19438863,"阿拉丁国际儿童摄影(正大广场店)","陆家嘴西路168号正大广场6楼66号","31.23703","121.49928","准五星商户","1405","￥3988","亲子摄影","陆家嘴"
2534491,"如家快捷酒店(陆家嘴东方明珠店)","昌邑路569号","31.24182","121.52215","四星商户","273","￥219","经济型","陆家嘴"
503802,"金茂俱乐部上海餐厅","世纪大道88号金茂君悦大酒店86楼","31.23525","121.50574","准五星商户","440","￥584","本帮江浙菜","陆家嘴"
2944498,"上海国际会议中心","滨江大道2727号","31.2386","121.49589","准五星商户","435","￥725","展馆展览","陆家嘴"
24803803,"JUSTPOP美式爆米花专卖(正大广场店)","陆家嘴环路168号","31.2374","121.50012","五星商户","150","￥32","其他","陆家嘴"
3688177,"惠食佳(陆家嘴店)","陆家嘴东路161号招商局大厦4楼","31.23757","121.50881","四星商户","563","￥188","粤菜","陆家嘴"
4523548,"银座梅林(国金中心店)","世纪大道8号国金中心商场L4楼L4-06&07","31.23663","121.50131","四星商户","1371","￥161","日本菜","陆家嘴"
2057128,"味千拉面(上海正大2店)","陆家嘴西路168号8F07,08室","31.23674","121.49919","五星商户","1786","￥41","日本菜","陆家嘴"
2806537,"东方滨江大酒店","滨江大道2727号东方滨江大酒店内","31.23919","121.497","四星商户","384","￥892","五星级/豪华型","陆家嘴"
27247729,"植物大战酱汁","华能联合大厦1楼","31.23917","121.5082","五星商户","28","￥38","西餐","陆家嘴"
5930150,"Jeniux Life(陆家嘴馆)","浦东大道3号瑞苑公寓37楼2372室","31.23978","121.51093","五星商户","319","￥14189","瑜伽","陆家嘴"
6450819,"Gloria Jean's Coffees(时代金融店)","银城中路68号时代金融中心1楼","31.24128","121.5066","五星商户","175","￥43","咖啡厅","陆家嘴"
584308,"The Kitchen Salvatore Cuomo","陆家嘴西路2967号D座402室","31.2408","121.49726","准五星商户","1035","￥391","西餐","陆家嘴"
24711882,"MIMI！韩式定妆纹绣纹眉绣眉纹眼线（韩式半永久）(八佰伴店)","浦东新区浦东南路1101号远东大厦14楼1417室","31.22912","121.51738","准五星商户","35","￥2029","纹绣","八佰伴"
507108,"滩万日本料理","富城路33号香格里拉大酒店紫金楼2楼","31.23571","121.4991","四星商户","473","￥329","日本菜","陆家嘴"
23952340,"康源养生会馆","东昌路498弄东园二村206号楼前40号独栋","31.23176","121.51165","准五星商户","149","￥123","足疗按摩","陆家嘴"
3637864,"哈根达斯(正大星美影院店)","陆家嘴西路168号正大广场8楼星美影院外","31.23672","121.49919","准五星商户","4025","￥43","面包甜点","陆家嘴"
14901528,"香格俪莱(仁恒店)","浦城路111号","31.23015","121.51113","五星商户","1033","￥943","美发","陆家嘴"
29083376,"翡翠拉面小籠包","陆家嘴西路168号正大广場8F06","31.23636","121.49812","四星商户","166","￥87","小吃快餐","陆家嘴"
14707078,"元气寿司(国金中心店)","世纪大道8号国际金融中心LG2楼","31.23605","121.50307","准四星商户","614","￥101","日本菜","陆家嘴"
2741176,"姗娜娜(陆家嘴店)","浦东大道1008号","31.24131","121.53223","四星商户","74","￥184","足疗按摩","陆家嘴"
21289878,"浓情潮膳","陆家嘴西路168号正大广场B2楼食代馆","31.2374","121.50012","准五星商户","178","￥35","粤菜","陆家嘴"
500659,"日珍日本餐厅","世纪大道88号金茂君悦大酒店56楼","31.23501","121.50581","四星商户","308","￥480","日本菜","陆家嘴"
6438545,"西树泡芙(正大广场)","陆家嘴西路168号正大广场B2楼","31.23738","121.50009","准五星商户","1745","￥16","面包甜点","陆家嘴"
4126867,"Apple Store(国金中心店)","世纪大道8号上海国金中心IFC商场LG1-27号店铺","31.2367","121.50237","四星商户","972","￥4616","数码产品","陆家嘴"
4047184,"云晓光头烧烤吧(南泉北路店)","南泉北路47号","31.23782","121.51564","准五星商户","739","￥68","烧烤","陆家嘴"
8367210,"番茄物语 Céléb de TOMATO(上海环球金融中心店)","世纪大道100号上海环球金融中心2楼","31.23457","121.50796","四星商户","899","￥92","其他","陆家嘴"
6840636,"汇尊滨江酒店","滨江大道3528号","31.23043","121.50297","四星商户","458","￥224","本帮江浙菜","陆家嘴"
22169927,"TWG Tea(国金中心店)","世纪大道8号上海国金中心D座二层L2-38室","31.23591","121.50102","四星商户","122","￥156","咖啡厅","陆家嘴"
2611612,"瑞慈体检(陆家嘴店)","浦东南路256号华夏银行大厦3楼","31.23962","121.50872","准五星商户","890","￥519","体检中心","陆家嘴"
2818243,"Living Room","世纪大道100号上海环球金融中心上海柏悦酒店87楼","31.23435","121.50733","四星商户","932","￥234","咖啡厅","陆家嘴"
23225442,"迪士尼旗舰店","丰和路180号","31.2383","121.49964","准四星商户","583","￥263","综合商场","陆家嘴"
3891853,"AURA大堂酒廊及爵士吧","世纪大道8号上海国金中心丽思卡尔顿酒店52楼","31.23663","121.50131","准五星商户","749","￥294","西餐","陆家嘴"
18081784,"台北犁记饼店(正大店)","陆家嘴路168号正大广场B2楼","31.23741","121.50013","准五星商户","444","￥61","面包甜点","陆家嘴"
4617858,"上海雅客滨江酒店式公寓","昌邑路588号","31.24114","121.52164","四星商户","160","￥375","四星级/高档型","陆家嘴"
5494638,"国金汇","世纪大道8号","31.23664","121.50133","准五星商户","83","￥1257","经济型","陆家嘴"
3692278,"许留山(正大店)","陆家嘴西路168号正大广场B2楼B2-02号铺","31.23675","121.49921","四星商户","1670","￥33","面包甜点","陆家嘴"
22824518,"银平(上海环球金融中心店)","世纪大道100号上海环球金融中心3楼","31.23456","121.5073","四星商户","81","￥93","日本菜","陆家嘴"
22967261,"CaliBurger卡利堡(正大广场)","陆家嘴西路168号正大广场B2-15","31.23685","121.49926","准五星商户","227","￥36","西餐","陆家嘴"
2468800,"朱国凡良子","即墨路37号","31.24018","121.51244","准五星商户","551","￥168","足疗按摩","陆家嘴"
24317806,"渔宴游艇摄影主题餐厅","陆家嘴滨江大道东昌路游艇码头","31.23066","121.50276","五星商户","16","￥387","日本菜","陆家嘴"
4092748,"太和殿精致麻辣火锅(尚未开业，正在装修)","世纪大道100号上海环球金融中心3楼","31.2374","121.50126","准四星商户","762","￥458","火锅","陆家嘴"
22456473,"BOOBAY颐指间美甲美睫会所(文华东方酒店店)","浦东南路111号文华东方酒店地下商铺120单元","31.24353","121.50733","五星商户","113","￥266","美甲","陆家嘴"
1927909,"香格里拉大酒店·婚宴","富城路33号香格里拉大酒店内","31.23588","121.49913","准五星商户","383","￥990","婚宴","陆家嘴"
8304867,"曼都发型(正大广场店)","陆家嘴西路168号正大广场7楼26B号商铺","31.23703","121.50011","四星商户","616","￥284","美发","陆家嘴"
9078669,"摩斯汉堡(陆家嘴店)","陆家嘴环路1000号恒生银行大厦2楼","31.24012","121.50714","准五星商户","341","￥36","西餐","陆家嘴"
5500927,"南翔1900(正大店)","陆家嘴西路168号正大广场8楼25号铺","31.2374","121.50012","准四星商户","1426","￥61","小吃快餐","陆家嘴"
8920159,"滨江3号","滨江大道2550号","31.24187","121.50132","准五星商户","128","￥755","粤菜","陆家嘴"
503341,"Piano Bar","世纪大道88号金茂君悦大酒店53楼","31.23487","121.50559","四星商户","268","￥135","其他","陆家嘴"
18196610,"Equilibrium","陆家嘴西路168号正大广场B2楼03单元","31.23703","121.50011","四星商户","373","￥58","西餐","陆家嘴"
4195644,"上海凯宾斯基大酒店·婚宴","陆家嘴环路1288号上海凯宾斯基大酒店3楼","31.24233","121.5042","准五星商户","142","￥5741","婚宴","陆家嘴"
17179522,"晶采轩·婚宴(浦东店)","银城中路68号时代金融中心2-3楼","31.2413","121.50652","准五星商户","89","￥710","婚宴","陆家嘴"
23136064,"京世造型美容(崂山店)","栖霞路104-106号","31.23695","121.51898","五星商户","954","￥100","美发","陆家嘴"
13830508,"韩美尔烤肉","栖霞路55号","31.23628","121.51647","四星商户","187","￥57","烧烤","八佰伴"
13785958,"MUJI(IFC广场店)","世纪大道8号IFC国金中心3楼","31.23646","121.50103","准五星商户","93","￥198","服饰鞋包","陆家嘴"
18040877,"上海中心大厦","陆家嘴环路479号","31.2341","121.50625","准五星商户","41","None","城市观光","陆家嘴"
4076806,"Godiva(上海IFC商场店)","陆家嘴世纪大道8号国际金融中心B2楼LG2-36、37号铺","31.2374","121.50126","四星商户","1165","￥46","面包甜点","陆家嘴"
2295055,"上海城市历史发展陈列馆","浦东世纪大道1号东方明珠零米大厅内","31.23913","121.49966","五星商户","371","￥35","展馆展览","陆家嘴"
4088818,"City' Super(国金中心店)","世纪大道8号国金中心商场B2楼LG2室26号商铺","31.23664","121.50131","准五星商户","970","￥103","超市/便利店","陆家嘴"
21721525,"七叶和茶(国金店)","世纪大道8号国金中心商场LG2楼","31.23764","121.50137","四星商户","321","￥42","面包甜点","陆家嘴"
2374135,"MUJI(正大广场店)","陆家嘴西路168号正大广场4楼H-03B号铺","31.23674","121.49919","准五星商户","1211","￥164","服饰鞋包","陆家嘴"
22948918,"e道美&HZ定制(八佰伴店)","浦东南路1101号远东大厦办公区1619-1620室","31.22904","121.51719","五星商户","405","￥298","美发","八佰伴"
23685029,"爱睫物语(金茂店)","世纪大道88号金茂大厦裙房,J·LIFE金茂时尚生活中心3层08","31.23526","121.50582","五星商户","141","￥312","美睫","陆家嘴"
1797076,"汤姆熊(正大广场店)","陆家嘴西路168号正大广场6楼14-15号铺","31.23702","121.50009","准五星商户","3751","￥90","游乐游艺","陆家嘴"
13661035,"7天连锁酒店(浦东大道店)","浦东大道2188号海防新村74号","31.24872","121.55147","四星商户","205","￥139","经济型","陆家嘴"
2380228,"泰和足道(浦东大道店)","浦东大道569号","31.24086","121.52158","四星商户","216","￥169","足疗按摩","陆家嘴"
21109341,"浆宝超活力代餐吧(正大广场店)","陆家嘴西路168号正大广场B2楼09B室","31.23687","121.50027","五星商户","367","￥29","面包甜点","陆家嘴"
3635677,"Green Massage青籁养身(陆家嘴店)","世纪大道100号上海环球金融中心3楼304室","31.2351","121.50775","准五星商户","249","￥422","足疗按摩","陆家嘴"
500315,"九重天酒廊","世纪大道88号金茂君悦大酒店87楼","31.23503","121.50583","四星商户","846","￥142","其他","陆家嘴"
572253,"满记甜品(上海正大广场店)","上海市浦东新区陆家嘴西路168号五楼5F58商铺","31.2374","121.50012","四星商户","2681","￥34","面包甜点","陆家嘴"
23491052,"DK 每日廚坊","昌邑路527号","31.24187","121.52024","五星商户","65","￥28","台湾菜","陆家嘴"
5393555,"丽豪港式茶餐厅(环球金融中心店)","世纪大道100号上海环球金融中心B1楼02-2室","31.23457","121.50796","准四星商户","521","￥58","粤菜","陆家嘴"
21352417,"和颐酒店","浦三路111弄5号楼","31.1965","121.51248","准五星商户","54","￥241","四星级/高档型","陆家嘴"
4109968,"泰和茶馆(浦东大道店)","浦东大道569号","31.24086","121.52162","四星商户","513","￥109","其他","陆家嘴"
8004337,"豆子在旅行咖啡","栖霞路39号-6","31.23575","121.515","准五星商户","402","￥29","咖啡厅","陆家嘴"
14170238,"Godiva(上海环球金融中心店)","世纪大道100号上海环球金融中心2楼","31.23457","121.50796","准五星商户","212","￥45","面包甜点","陆家嘴"
18499017,"家有好面(正大广场店)","陆家嘴正大广场B2","31.23685","121.49926","准四星商户","301","￥33","小吃快餐","陆家嘴"
21902761,"大食代(正大广场店)","陆家嘴西路168号","31.23726","121.49903","四星商户","105","￥39","小吃快餐","陆家嘴"
9093592,"信不信由你展","滨江大道2789号外滩观光隧道B2楼","31.23892","121.49704","准五星商户","447","￥41","展馆展览","陆家嘴"
505712,"浦东香格里拉大堂紫金酒廊","富城路33号浦东香格里拉大酒店浦江楼1楼","31.23588","121.49913","四星商户","291","￥176","咖啡厅","陆家嘴"
1892563,"DQ冰雪皇后(正大一店)","陆家嘴西路168号正大广场8楼09号铺","31.23674","121.49919","准五星商户","4163","￥23","面包甜点","陆家嘴"
5393563,"哈根达斯(国金中心店)","世纪大道8号国金中心商场地下1楼LG1-89号商铺","31.23664","121.50131","四星商户","103","￥63","面包甜点","陆家嘴"
3226891,"宝岛眼镜(上海浦东正大广场店)","陆家嘴西路168号正大广场B1F05","31.23703","121.50011","准五星商户","122","￥297","眼镜店","陆家嘴"
8075451,"NAPOLEON CHOCOLATE BAR(正大店)","陆家嘴西路168号正大广场B2楼","31.2374","121.50012","四星商户","1041","￥43","面包甜点","陆家嘴"
21279332,"食之秘(环球金融中心店)","世纪大道100号环球金融中心B1室","31.23475","121.50753","四星商户","55","￥33","面包甜点","陆家嘴"
3262375,"乐意坊意大利餐厅&酒吧(陆家嘴店)","陆家嘴环路165号1楼","31.23527","121.50122","准五星商户","494","￥212","西餐","陆家嘴"
17649281,"凯宾斯基大堂LOBBY","陆家嘴环路1288号凯宾斯基大酒店1楼","31.24218","121.504","准五星商户","147","￥65","咖啡厅","陆家嘴"
6015761,"威尔士健身会所(上海环球金融店)","世纪大道100号上海环球金融中心B1楼","31.23457","121.50796","准四星商户","112","￥9366","健身中心","陆家嘴"
23402362,"Vita瑜伽(陆家嘴国际会议中心店)","滨江大道2727号上海国际会议中心东方滨江大酒店9楼","31.23922","121.49684","准五星商户","79","None","瑜伽","陆家嘴"
14905642,"Dragonfly 悠庭(国金ifc店)","世纪大道8号国金中心LGII47号","31.23646","121.50103","四星商户","96","￥275","足疗按摩","陆家嘴"
3591595,"要得湖南湘菜馆","浦东大道143号乙","31.23946","121.51454","四星商户","204","￥58","湘菜","陆家嘴"
22821944,"韩滋语","南泉北路197号","31.2362","121.51593","准五星商户","64","￥30","韩国料理","陆家嘴"
14736066,"Gloria Jean's Coffees(保利广场店)","东方路18号保利广场1楼","31.24378","121.51792","准五星商户","69","￥35","咖啡厅","陆家嘴"
2496271,"禾绿回转寿司(明珠店)","陆家嘴环路1406-1414号2楼","31.23983","121.50112","四星商户","888","￥69","日本菜","陆家嘴"
2295022,"海龙海鲜舫","东昌路1号","31.23112","121.50224","准四星商户","769","￥343","粤菜","陆家嘴"
13817149,"奇华饼家(国金中心店)","世纪大道8号国金中心LG2层B-2号铺","31.23633","121.50099","准五星商户","345","￥75","面包甜点","陆家嘴"
2443750,"浦江轩","滨江大道2727号东方滨江大酒店4楼","31.23922","121.49684","准四星商户","34","￥888","本帮江浙菜","陆家嘴"
21288807,"戴西养生堂(金茂店)","世纪大道88号金茂大厦裙楼3楼3N01-3N03室商铺","31.23546","121.50586","五星商户","113","None","美容/SPA","陆家嘴"
16821331,"1973继光香香鸡(正大广场店)","陆家嘴西路168号正大广场B2楼","31.23739","121.50017","准五星商户","318","￥17","小吃快餐","陆家嘴"
504109,"汉宫","浦东南路360号新上海国际大厦8楼、48楼","31.23884","121.50936","准四星商户","1418","￥144","本帮江浙菜","陆家嘴"
6124249,"正大中森会","富城路190号","31.23141","121.50233","准五星商户","76","￥525","粤菜","陆家嘴"
24636620,"祖母曲奇(正大店)","陆家嘴西路168号正大广场3楼中庭(近服务台","31.23685","121.49926","准五星商户","77","￥48","面包甜点","陆家嘴"
503604,"哈根达斯(滨江店)","滨江大道1号富都段码头北侧端","31.23571","121.49624","准四星商户","2117","￥76","面包甜点","陆家嘴"
2005330,"老上海8号餐厅","世纪大道1号东方明珠8号门国际新闻中心1楼","31.23913","121.49966","准四星商户","252","￥188","本帮江浙菜","陆家嘴"
23473263,"情同手足(张杨路)","张扬路945号(地铁:2,4,6,9)均到","31.2306","121.52602","五星商户","194","￥219","美甲","陆家嘴"
4288317,"YOBA酸奶冰淇淋(正大广场一店)","陆家嘴西路168号正大广场8楼-03C号铺","31.23712","121.49926","四星商户","2127","￥29","面包甜点","陆家嘴"
6018999,"Chaumont(国金中心店)","世纪大道8号上海国金中心LG2楼A-6号铺","31.23661","121.50126","四星商户","174","￥71","面包甜点","陆家嘴"
1901965,"星巴克(滨江店)","滨江大道富都段","31.2351","121.49741","准五星商户","2329","￥34","咖啡厅","陆家嘴"
22014946,"Paul Lafayet","世纪大道8号上海国金中心LG2-A-2","31.23641","121.50183","准五星商户","73","￥41","面包甜点","陆家嘴"
5226374,"孙平形象设计(金茂店)","世纪大道88号金茂大厦金茂时尚生活中心4楼","31.23511","121.50546","四星商户","269","￥143","美发","陆家嘴"
24030290,"猫屎咖啡(金茂店)","世纪大道88号金茂大厦裙楼1楼4号门出去15米（临近花园石桥路）","31.23526","121.50582","五星商户","55","￥35","咖啡厅","陆家嘴"
4657266,"Baker&Spice(国金中心店)","世纪大道8号国金中心IFC商场LG层16室","31.2374","121.50126","四星商户","1384","￥65","面包甜点","陆家嘴"
2017678,"UNIQLO(正大广场店)","陆家嘴西路168号正大广场B1楼","31.23763","121.50019","四星商户","1866","￥159","服饰鞋包","陆家嘴"
6114945,"肯德基(正大店)","陆家嘴西路168号正大广场5楼-07~08AB号铺","31.2374","121.50012","准四星商户","456","￥24","小吃快餐","陆家嘴"
503603,"许留山(滨江店)","滨江大道1号富都段滨江花园F2座","31.23554","121.49667","准四星商户","3527","￥39","面包甜点","陆家嘴"
17824922,"万信酒店餐厅","南洋泾路578号万信酒店1楼","31.23207","121.55648","四星商户","62","￥102","自助餐","陆家嘴"
21747586,"诚品书店","陆家嘴上海中心B1,52,53楼","31.2341","121.50626","三星商户","29","None","书店","陆家嘴"
582138,"天庭","世纪大道88号金茂君悦大酒店56楼","31.23501","121.50581","准五星商户","321","￥160","咖啡厅","陆家嘴"
22037851,"ALFAPARF欧贝芙意式美学护发中心(文华东方旗舰店)","浦东南路111号文华东方酒店地下一层商铺111单元","31.24283","121.50726","五星商户","116","￥755","美发","陆家嘴"
507535,"西安5号米皮","南泉北路51号-4","31.23776","121.51545","四星商户","1095","￥18","西北菜","陆家嘴"
2432977,"诺莱仕游艇会","浦东新区滨江大道3510号","31.23081","121.50263","四星商户","374","￥907","其他","陆家嘴"
5265971,"ABC Cooking Studio料理教室(上海环球金融中心店)","世纪大道100号上海环球金融中心2楼","31.23457","121.50796","准五星商户","199","￥171","面包甜点","陆家嘴"
6423399,"布歌东京(国金中心店)","世纪大道8号国金中心商场LG2-A-3","31.22073","121.53648","准五星商户","454","￥83","面包甜点","陆家嘴"
8821778,"赣江村","浦东大道279号","31.2399","121.51627","四星商户","162","￥77","其他","陆家嘴"
19185418,"珍尼花手工曲奇(国金中心店)","世纪大道8号国金中心商场B2楼LG2室商铺（City' Super超市内）","31.23741","121.50126","四星商户","41","￥76","面包甜点","陆家嘴"
5627195,"天厨","浦东陆家嘴环路1000号恒生大厦2楼02-053号商铺","31.24028","121.50736","准五星商户","340","￥46","日本菜","陆家嘴"
9027788,"豆苗工坊(正大广场店)","陆家嘴西路168号正大广场B2楼","31.2374","121.50012","四星商户","399","￥55","西餐","陆家嘴"
1795399,"滨江大道","东昌路和浦东南路间临江","31.23734","121.49569","准五星商户","2906","￥42","特色街区","陆家嘴"
22824508,"途尚咖啡(上海环球金融中心店)","世纪大道100号上海环球金融中心2楼216-1","31.23456","121.5073","四星商户","134","￥46","咖啡厅","陆家嘴"
4088836,"CHANEL(国金中心店)","世纪大道8号国金中心商场1楼L1 07-10","31.23663","121.50131","准五星商户","382","￥22621","服饰鞋包","陆家嘴"
24034105,"CLUXTA松下·智美体验空间","世纪大道100号环球金融中心2楼商城215商铺","31.23398","121.50685","五星商户","282","￥37","化妆品","陆家嘴"
27008099,"启梦星乐园(正大广场店)","陆家嘴西路168号正大广场3楼31号","31.23685","121.49926","准五星商户","84","￥81","亲子游乐","陆家嘴"
3229195,"新天世纪中餐厅","陆家嘴环路1288号上海凯宾斯基大酒店2楼","31.24233","121.5042","准五星商户","112","￥292","粤菜","陆家嘴"
23868473,"鲁肉范(正大店)","陆家嘴西路正大广场B2F18A","31.23685","121.49926","四星商户","317","￥33","其他","陆家嘴"
8914572,"三巡海南鸡饭(正大店)","陆家嘴西路168号正大广场B2楼食代馆","31.2374","121.50012","四星商户","192","￥35","东南亚菜","陆家嘴"
22805894,"中田健身工作室(浦东大道店)","浦东大道1139弄惠杨大厦1号楼22楼04室","31.24254","121.53436","准五星商户","97","￥4274","健身中心","陆家嘴"
507399,"浦东香格里拉西点坊","富城路33号浦东香格里拉大酒店紫金楼1楼","31.23568","121.49913","四星商户","976","￥44","面包甜点","陆家嘴"
2028745,"玩具反斗城(正大店)","陆家嘴西路168号正大广场4楼","31.2374","121.50012","四星商户","1138","￥226","亲子购物","陆家嘴"
24739587,"White Wedding 国际顶级婚纱礼服会所","陆家嘴乳山路505弄上海滩花园洋房近源深路","31.23922","121.53176","五星商户","37","￥12460","婚纱礼服","源深体育中心"
2281708,"美丽田园(金茂店)","世纪大道88号金茂大厦裙楼4N01-4N05室","31.23526","121.50584","四星商户","126","￥320","美容/SPA","陆家嘴"
5530816,"美厨汇","世纪大道8号国金中心4楼L4-1、2、3","31.2374","121.50126","四星商户","810","￥56","小吃快餐","陆家嘴"
3510547,"印像玩家影像中心(金茂店)","世纪大道88号金茂大厦裙楼时尚生活中心4C-11","31.23526","121.50584","五星商户","389","￥50","快照/冲印","陆家嘴"
4091251,"丽思卡尔顿酒店·婚宴","世纪大道8号上海国金中心丽思卡尔顿酒店","31.23663","121.50131","五星商户","149","￥1376","婚宴","陆家嘴"
5581046,"老母鸡汤面馆(南泉北路店)","南泉北路199号","31.23611","121.51598","准五星商户","121","￥20","小吃快餐","陆家嘴"
8075967,"TWM-Fitness运动生活馆(陆家嘴店)","银城中路68号时代金融中心39楼","31.24128","121.5066","五星商户","123","￥245","健身中心","陆家嘴"
9069726,"GAP(正大广场店)","陆家嘴西路168号正大广场1楼","31.23674","121.49919","准四星商户","90","￥293","服饰鞋包","陆家嘴"
2830951,"陈熙颖口腔诊所","浦东南路1138号上海湾305室","31.23973","121.50896","准五星商户","82","￥1229","齿科","陆家嘴"
17940417,"东田造型(正大店)","陆家嘴西路168号正大广场7楼06AB室","31.23703","121.49928","四星商户","178","￥443","美发","陆家嘴"
18519819,"花丸乌冬面(正大广场店)","陆家嘴西路168号正大广场5F02号商铺","31.2369","121.49928","准四星商户","343","￥50","日本菜","陆家嘴"
8869927,"食代馆","陆家嘴西路168号正大广场B2楼","31.2374","121.50012","准四星商户","186","￥37","小吃快餐","陆家嘴"
4282986,"Annvita Tea Boutique(国金中心店)","世纪大道8号国金中心商场LG2楼LG2-30","31.2374","121.50126","四星商户","624","￥127","其他","陆家嘴"
20705509,"白熊咖哩(国金中心店)","世纪大道8号国金中心商场LG2楼C-2","31.23764","121.50137","准四星商户","341","￥59","日本菜","陆家嘴"
17179466,"上海小南国·婚宴(国会店)","滨江大道2727号东方滨江大酒店7楼","31.23926","121.49697","五星商户","91","￥331","婚宴","陆家嘴"
23757059,"美联社&美丽频道造型(陆家嘴正大广场店)","陆家嘴168号正大广场8楼58B号商铺","31.23685","121.49926","准五星商户","9","None","美发","陆家嘴"
14202178,"滨浦汇","浦东新区陆家嘴滨江大道2922号","31.23826","121.49624","四星商户","71","￥696","粤菜","陆家嘴"
1870474,"迪士尼(正大店)","陆家嘴西路168号正大广场2楼","31.2374","121.50013","四星商户","72","￥179","亲子购物","陆家嘴"
2820193,"柏悦酒店大堂酒吧","世纪大道100号上海环球金融中心上海柏悦酒店87楼","31.23457","121.50796","四星商户","192","￥167","其他","陆家嘴"
15866709,"楚楚园馅饼粥(上海环球金融中心店)","世纪大道100号上海环球金融中心B2楼嘉柚美食广场","31.23457","121.50796","准四星商户","185","￥32","小吃快餐","陆家嘴"
8859119,"巴黎贝甜(正大广场店)","陆家嘴西路168号正大广场B2楼","31.23701","121.50009","四星商户","377","￥25","面包甜点","陆家嘴"
12600960,"恋暖初茶(国金中心店)","世纪大道8号国金中心商场LG2楼city超市内","31.23664","121.50131","四星商户","496","￥16","面包甜点","陆家嘴"
2491549,"名甲物语(正大店)","陆家嘴西路168号正大广场B2楼1A06B号铺","31.23741","121.50013","四星商户","244","￥232","美甲","陆家嘴"
20655994,"食之秘(星展银行店)","陆家嘴环路1318号星展银行大厦美食广场","31.24238","121.50324","四星商户","350","￥67","面包甜点","陆家嘴"
8884959,"富春小笼(正大广场店)","陆家嘴西路168号正大广场B2楼食代馆内","31.23674","121.49919","三星商户","399","￥29","小吃快餐","陆家嘴"
17698923,"Annvita Tea Room(国金中心L4店)","世纪大道8号国金中心4楼L4-12","31.23646","121.50103","准四星商户","168","￥104","其他","陆家嘴"
21112092,"汉拿山(正大广场店)","陆家嘴西路168号正大广场B2楼1A-01室","31.23703","121.49928","准五星商户","8","None","韩国料理","陆家嘴"
502961,"上海金茂君悦大酒店·婚宴","世纪大道88号金茂大厦裙楼2楼","31.23525","121.50574","五星商户","364","￥709","婚宴","陆家嘴"
4095283,"陆家嘴空中步行连廊","陆家嘴西路168号正大广场旁","31.23703","121.50011","准五星商户","57","None","城市观光","陆家嘴"
4684116,"东方既白(陆家嘴店)","世纪大道55号东方浮庭1楼","31.23847","121.50226","准四星商户","418","￥28","小吃快餐","陆家嘴"
24877623,"万宜坊","世纪大道100号环球金融中心B2","31.23398","121.50685","准四星商户","14","￥25","小吃快餐","陆家嘴"
18643240,"浦京国际KTV会所","东方路818号众城大夏2楼","31.22683","121.52571","准四星商户","19","None","KTV","陆家嘴"
4600640,"COSTA COFFEE(国金中心店)","世纪大道8号上海国金中心D座B1楼LG1-37室","31.23647","121.50099","四星商户","963","￥34","咖啡厅","陆家嘴"
4522699,"YOBA酸奶冰淇淋(正大广场二店)","陆家嘴西路168号正大广场5楼","31.2374","121.50012","四星商户","1490","￥28","面包甜点","陆家嘴"
4080985,"Louis Vuitton(国金中心店)","世纪大道8号国金中心商场D座1楼L1-1商铺","31.23662","121.50127","四星商户","209","￥9146","服饰鞋包","陆家嘴"
23102291,"道顿堀居酒屋(东昌路店)","东昌路527号","31.2327","121.51206","准四星商户","46","￥120","日本菜","陆家嘴"
32390828,"外婆家","陆家嘴西路","31.23744","121.49964","准四星商户","None","None","本帮江浙菜","陆家嘴"
2067325,"ZARA(正大广场店)","陆家嘴西路168号1层GF26BD铺位","31.23673","121.49906","准四星商户","707","￥456","服饰鞋包","陆家嘴"
19708704,"学院怪谈","正大广场正大厅","31.23703","121.49928","准四星商户","455","￥66","密室","陆家嘴"
19806946,"萌仔熊札幌咖喱(正大广场店)","陆家嘴西路168号正大广场B2食代馆内","31.23623","121.49997","四星商户","164","￥41","日本菜","陆家嘴"
1901947,"星巴克(正大店)","陆家嘴西路168号3F","31.23732","121.49945","四星商户","472","￥40","咖啡厅","陆家嘴"
5628570,"小小运动馆(上海环球中心)","世纪大道100号上海环球金融中心2楼","31.23457","121.50796","准五星商户","203","￥8995","幼儿教育","陆家嘴"
2739373,"柏悦 Dining Room","世纪大道100号上海环球金融中心上海柏悦酒店87楼","31.23435","121.50733","准五星商户","389","￥472","西餐","陆家嘴"
9038932,"巧手香锅牛蛙馆(上海环球金融中心店)","世纪大道100号上海环球金融中心B2楼","31.23457","121.50796","四星商户","310","￥42","川菜","陆家嘴"
4088872,"TIFFANY&CO(国金中心店)","世纪大道8号国金中心商场1楼L1-28","31.23662","121.50129","四星商户","178","￥6152","婚戒首饰","陆家嘴"
2217802,"威尔士健身会所(金茂店)","世纪大道88号金茂大厦裙楼金茂时尚生活中心J·LIFE4楼","31.23525","121.50574","三星商户","324","￥2642","健身中心","陆家嘴"
19330288,"雷诺瓦正大店×葛乐蒂咖啡馆(正大广场店)","陆家嘴西路168号正大广场5楼5FC-62室","31.23703","121.49928","五星商户","329","￥44","DIY手工坊","陆家嘴"
5290490,"CoCo壱番屋(正大广场店)","陆家嘴西路168号正大广场8楼08B号铺","31.23691","121.50012","准四星商户","798","￥47","日本菜","陆家嘴"
4117658,"Little Mermaid Bakery(国金中心店)","世纪大道8号国金中心商场B2楼LG2-26室","31.23663","121.50131","四星商户","543","￥34","面包甜点","陆家嘴"
19429217,"幻品 La Fantasia(国金店)","世纪大道8号国金中心商场B2楼LG2室citysuper超生活26号商铺","31.23741","121.50126","四星商户","74","￥113","面包甜点","陆家嘴"
5623337,"睛姿眼镜店(环球中心店)","世纪大道100号上海环球金融中心2楼219室","31.23457","121.50796","准五星商户","144","￥586","眼镜店","陆家嘴"
1919890,"哈根达斯(正大店)","陆家嘴西路168号正大广场1楼GF31号铺","31.23703","121.50011","准四星商户","659","￥69","面包甜点","陆家嘴"
501128,"红塔豪华精选酒店Danieli's意大利餐厅","东方路889号红塔豪华精选酒店39楼","31.22376","121.52823","四星商户","451","￥283","西餐","八佰伴"
9381689,"茶香书香(滨江店)","富城路28号1楼","31.23551","121.49815","四星商户","940","￥38","面包甜点","陆家嘴"
8831744,"爱尚居酒店式公寓","昌邑路600号豪德万源大酒店905室","31.24147","121.5221","准四星商户","45","￥306","经济型","陆家嘴"
17626450,"浦东四季酒店·婚宴","世纪大道210号二十一世纪大厦30-41楼","31.23413","121.51024","五星商户","19","None","婚宴","陆家嘴"
10653335,"Pascasa Sunbrunch元意西餐","陆家嘴环路1188号L-2","31.24148","121.50514","四星商户","417","￥112","西餐","陆家嘴"
3216808,"hotwind(正大广场店)","陆家嘴西路168号正大广场5楼C2-3","31.2374","121.50012","五星商户","205","￥228","服饰鞋包","陆家嘴"
24068701,"三千丝(陆家嘴店)","浦东新区 浦东南路988号","31.23054","121.51484","五星商户","173","￥140","美发","陆家嘴"
4081612,"卡地亚(国金中心店)","世纪大道8号国金中心商场1楼L1-2","31.23611","121.50308","四星商户","148","￥21024","婚戒首饰","陆家嘴"
5146669,"洋面屋五右卫门(上海环球金融中心店)","世纪大道100号上海环球金融中心B1楼106-2号","31.23457","121.50796","四星商户","604","￥46","西餐","陆家嘴"
22433711,"迈可先生·私家衣尚护理中心(滨江店)","潍坊西路1弄16号热带风情会所B1","31.22195","121.51425","五星商户","48","￥109","洗衣店","陆家嘴"
27273961,"野兽派","陆家嘴银城中路国金大厦","31.23558","121.50316","四星商户","15","None","花店","陆家嘴"
4089040,"Van Cleef & Arpels(国金中心店)","世纪大道8号国金中心商场1楼L1-31","31.23664","121.50131","五星商户","47","￥26571","婚戒首饰","陆家嘴"
504064,"福临门鱼翅海鲜酒家","富城路33号香格里拉大酒店浦江楼2楼","31.23554","121.49932","准五星商户","297","￥656","粤菜","陆家嘴"
4113343,"PANDORA 潘多拉婚礼制作","西藏南路1739号耀江花园3号楼704室","31.1991","121.49214","五星商户","86","￥28450","婚庆公司","董家渡"
5265548,"创意天地(正大广场店)","陆家嘴西路168号正大广场5楼503-508号铺","31.2374","121.50012","准四星商户","22","￥120","亲子游乐","陆家嘴"
20807251,"集媄堂美甲(正大广场店)","陆家嘴西路168号正大广场2F","31.23752","121.50052","四星商户","253","￥106","美甲","陆家嘴"
6295705,"MLB(正大广场店)","陆家嘴西路168号正大广场5楼","31.23674","121.49919","四星商户","29","￥980","服饰鞋包","陆家嘴"
4189220,"桂由美婚纱YUMI KATSURA(上海旗舰店)","富城路33号香格里拉大酒店紫金楼4F","31.23588","121.49913","准五星商户","33","￥25899","婚纱礼服","陆家嘴"
22892556,"醉辉皇.婚宴(浦东店)","花园石桥路66号东亚银行金融大厦3楼","31.23427","121.50202","四星商户","4","None","婚宴","陆家嘴"
18145418,"Salad+色拉嘉","世纪大道100号环球金融中心B1楼","31.23494","121.50767","准五星商户","179","￥34","西餐","陆家嘴"
24317976,"大士村南洋美食(陆家嘴店)","陆家嘴环路1233号102单元Unit102 Lujiazui Ring Road No.1233 AZIA Center","31.24098","121.50415","准四星商户","50","￥83","东南亚菜","陆家嘴"
4118287,"SKY 94","世纪大道100号上海环球金融中心观光厅94楼","31.23442","121.507","准四星商户","85","￥44","咖啡厅","陆家嘴"
2254273,"史云逊健发.美发中心(正大店)","陆家嘴西路168号正大广场B1楼23A号铺","31.23674","121.49919","四星商户","138","￥4787","美发","陆家嘴"
17179780,"恒悦轩精致香港粤菜·婚宴(陆家嘴店)","世纪大道201号渣打银行大厦3-4楼","31.23588","121.50988","准五星商户","67","￥212","婚宴","陆家嘴"
9154338,"粤珍小厨(正大广场店)","陆家嘴西路168号正大广场B1-17号铺","31.23701","121.49925","四星商户","291","￥25","小吃快餐","陆家嘴"
18179479,"沃歌斯(陆家嘴环路店)","陆家嘴环路1188号L1商铺","31.24148","121.50514","准四星商户","69","￥87","西餐","陆家嘴"
4516714,"Lis Dessert(国金中心店)","世纪大道8号国金中心商场LG2楼","31.23663","121.50131","准四星商户","571","￥25","面包甜点","陆家嘴"
23437147,"湘","东方路43号","31.24254","121.52001","四星商户","29","￥86","湘菜","陆家嘴"
502015,"上海金茂君悦精饼屋","世纪大道88号金茂君悦大酒店1楼3号门","31.23501","121.50581","四星商户","2552","￥120","面包甜点","陆家嘴"
27468861,"哈利波特tm魔法世界","陆家嘴西路168号正大广场9楼","31.23685","121.49926","准四星商户","19","None","游乐游艺","陆家嘴"
4287226,"麦当劳(国金中心店)","世纪大道8号国金中心商场LG1-17号商铺","31.23662","121.50127","准四星商户","477","￥23","小吃快餐","陆家嘴"
23967861,"teenie weenie cafe","陆家嘴西路168号正大广场2楼","31.23727","121.499","四星商户","116","￥45","咖啡厅","陆家嘴"
8876717,"文华东方酒店滨江大堂吧","浦东南路111号文华东方酒店内","31.24362","121.50727","四星商户","148","￥203","咖啡厅","陆家嘴"
27268384,"Awfully Chocolate(国金中心店)","陆家嘴世纪大道8号国金中心商场LG2","31.23723","121.5017","四星商户","17","None","服饰鞋包","陆家嘴"
27292279,"4inlook美目美佳隐形眼镜店(正大广场店)","陆家嘴西路168号临1F15","31.23636","121.49812","五星商户","54","None","眼镜店","陆家嘴"
22177846,"YOBA酸奶冰淇淋(正大广场三店)","陆家嘴西路168号正大广场B2楼","31.23752","121.50052","准五星商户","210","￥29","面包甜点","陆家嘴"
4181092,"柏悦酒店·婚宴","世纪大道100号陆家嘴上海环球金融中心柏悦酒店86楼","31.23457","121.50796","五星商户","27","None","婚宴","陆家嘴"
1795948,"艾维庭美容纤体SPA(正大广场店)","陆家嘴西路168号正大广场7楼7A25号铺","31.23674","121.49919","四星商户","155","￥244","美容/SPA","陆家嘴"
1901974,"星巴克(正大2店)","陆家嘴西路168号1F","31.23703","121.50011","四星商户","1071","￥38","咖啡厅","陆家嘴"
2311108,"HOLA特力和乐(正大店)","陆家嘴西路168号正大广场6楼","31.23763","121.50019","四星商户","634","￥122","更多购物场所","陆家嘴"
5338152,"福荣祥烧腊(陆家嘴店)","南泉北路31号","31.23836","121.51544","三星商户","51","￥23","小吃快餐","陆家嘴"
5596307,"天然岩石烧肉孙三郎","浦东陆家嘴世纪大道8号上海国金中心商场4层L4-1,2&3号铺","31.2374","121.50126","准四星商户","277","￥192","日本菜","陆家嘴"
17612325,"极地探险互动馆","滨江大道2789号1楼","31.23836","121.49703","三星商户","37","￥15","展馆展览","陆家嘴"
2405194,"瑞尔齿科(正大广场店)","陆家嘴西路168号正大广场B1楼F16号铺","31.23701","121.50009","四星商户","116","￥786","齿科","陆家嘴"
4212893,"国金中心停车场","世纪大道8号国金中心商场内","31.23664","121.50131","四星商户","201","￥23","停车场","陆家嘴"
19827138,"Coffee Passionate","国金中心LG2-A-13室","31.23591","121.50102","准五星商户","105","￥32","面包甜点","陆家嘴"
8891975,"和牛铁板烧(正大店)","陆家嘴西路168号正大广场B2美食广场内","31.23674","121.49919","准四星商户","102","￥58","日本菜","陆家嘴"
13767927,"Café Lugo(正大广场店)","陆家嘴西路168号正大广场1楼GF28-29室","31.23701","121.49867","准四星商户","495","￥44","咖啡厅","陆家嘴"
4289591,"星巴克(国金中心店)","世纪大道8号上海国金中心D座商场裙房B2层LG2-29室","31.23663","121.50131","四星商户","459","￥36","咖啡厅","陆家嘴"
2651665,"东北菜馆(栖霞路店)","栖霞路51号","31.23604","121.51564","准四星商户","110","￥29","东北菜","陆家嘴"
5636591,"UGG Australia(国金店)","世纪大道8号国金中心地下1楼LG1-30铺","31.23646","121.50103","准五星商户","60","￥1438","服饰鞋包","陆家嘴"
1865209,"大众书局(正大店)","陆家嘴西路168号正大广场7楼","31.2374","121.50012","四星商户","682","￥38","书店","陆家嘴"
2967475,"TONI&GUY(正大广场店)","陆家嘴西路168号正大广场B2楼","31.23701","121.50009","四星商户","198","￥196","美发","陆家嘴"
5303923,"Gelato by RL.GODA(国金中心店)","世纪大道8号国金中心IFC商场LG2","31.23646","121.50103","四星商户","976","￥36","面包甜点","陆家嘴"
4555098,"欧米亚(世纪大道店)","世纪大道55号东方浮庭2楼","31.23867","121.50221","准四星商户","789","￥109","西餐","陆家嘴"
6119399,"嘉厨小馆(浦东大道店)","浦东大道125号","31.23896","121.51319","准四星商户","84","￥36","粤菜","陆家嘴"
17739234,"家全七福(浦东店)","富城路33号香格里拉大酒店浦江楼2楼","31.23587","121.49919","四星商户","31","￥296","粤菜","陆家嘴"
24599903,"rainbow confetti七色纸屑婚礼定制","南泉北路1035弄紫金汉宫414室","31.22532","121.51841","准五星商户","11","None","婚庆公司","八佰伴"
17212550,"Candy Lab糖果研究室(正大广场店)","陆家嘴西路168号正大广场8楼","31.23703","121.49928","四星商户","134","￥48","面包甜点","陆家嘴"
1860271,"NIKE(正大店)","陆家嘴西路168号正大广场7楼","31.23702","121.5001","准四星商户","22","￥596","运动户外","陆家嘴"
1956559,"味千拉面(上海东方明珠店)","陆家嘴环路1388号","31.23972","121.50108","四星商户","799","￥43","日本菜","陆家嘴"
4088845,"Salvatore Ferragamo(国金中心店)","世纪大道8号国金中心商场1楼L1-10","31.23663","121.50131","四星商户","84","￥3893","服饰鞋包","陆家嘴"
27454180,"JUSTPOP美式爆米花专卖(正大广场迷你院线店)","正大广场8楼","31.23685","121.49926","五星商户","24","None","其他","陆家嘴"
1861594,"茂昌眼镜(正大店)","陆家嘴西路168号正大广场3楼01号铺","31.23674","121.49919","四星商户","123","￥897","眼镜店","陆家嘴"
13658795,"上海国际肚皮舞发烧友俱乐部","向城路29号爵士大厦A栋30楼A座","31.22472","121.52874","准五星商户","60","￥234","舞蹈","八佰伴"
3240919,"雅客瑞园酒店式公寓(浦东大道店)","浦东大道3号","31.2399","121.51107","准四星商户","31","￥748","五星级/豪华型","陆家嘴"
2043781,"观景台","滨江大道2852号1楼沿江","31.24061","121.49682","四星商户","107","￥647","其他","陆家嘴"
3181222,"东北四季饺子王(浦东大道店)","浦东大道143号甲","31.23944","121.51438","准四星商户","445","￥40","东北菜","陆家嘴"
5313456,"宝寿司(招远路店)","招远路19号","31.23692","121.51428","准五星商户","202","￥37","日本菜","陆家嘴"
4077376,"宝寿司(陆家嘴店)","陆家嘴环路1318号星展银行大厦B1楼5号铺","31.24187","121.50351","准四星商户","575","￥38","日本菜","陆家嘴"
3685351,"每日新鲜水果吧(陆家嘴店)","陆家嘴西路168号正大广场B2楼卜蜂莲花超市入口外","31.2374","121.50012","准五星商户","1454","￥21","面包甜点","陆家嘴"
3239404,"海悦滨江酒店公寓","昌邑路588弄1号","31.24114","121.52178","准四星商户","47","￥379","四星级/高档型","陆家嘴"
4619189,"DQ冰雪皇后(东方浮庭店)","世纪大道55号东方浮庭2楼","31.23847","121.50226","准五星商户","326","￥27","面包甜点","陆家嘴"
2078806,"C&A(正大广场店)","陆家嘴西路168号正大广场1楼GF13-16号铺","31.23703","121.50011","准四星商户","973","￥178","服饰鞋包","陆家嘴"
1886167,"威尔士健身会所(正大店)","陆家嘴西路168号7楼","31.23674","121.49919","三星商户","596","￥4894","健身中心","陆家嘴"
13658422,"东北四季饺子王(万源店)","浦东大道599号","31.24094","121.52213","准四星商户","118","￥47","东北菜","陆家嘴"
5677427,"花丸乌冬面(上海环球金融中心店)","世纪大道100号上海环球金融中心B1楼","31.2351","121.50775","四星商户","578","￥34","日本菜","陆家嘴"
22454492,"甛印(浦电路店)","浦电路357号世纪联华内B1（崂山路浦电路）","31.22079","121.52935","四星商户","27","￥21","面包甜点","陆家嘴"
3898612,"彩花束(陆家嘴西路正大广场店)","陆家嘴西路168号正大广场B2楼超市中门入口右侧","31.23739","121.50014","四星商户","79","￥356","花店","陆家嘴"
2824471,"面包新语(正大广场店)","陆家嘴西路168号正大广场B2楼","31.23736","121.5","准四星商户","645","￥26","面包甜点","陆家嘴"
4129998,"Red Passion(新天酒吧）","陆家嘴环路1288号上海凯宾斯基大酒店30楼","31.24256","121.5041","四星商户","89","￥139","其他","陆家嘴"
24873431,"必品阁bibigo(环球金融中心店)","环球金融中心B1楼","31.23398","121.50685","准四星商户","70","￥56","韩国料理","陆家嘴"
4207332,"食其家(浦电路店)","浦电路357号世纪联华B1楼","31.22072","121.52973","四星商户","543","￥24","日本菜","陆家嘴"
1942801,"城市超市(滨江店)","陆家嘴花园石桥路33号花旗集团大厦西侧底层","31.2339","121.50001","四星商户","148","￥57","超市/便利店","陆家嘴"
22022048,"塑魅丰胸美胸护理中心(金茂中心)","世纪大道88号金茂大厦时尚生活中心3N04-3N05","31.23508","121.50544","五星商户","76","￥500","美容/SPA","陆家嘴"
8870000,"胡椒厨房(正大广场店)","陆家嘴西路168号正大广场B2楼食代馆内","31.23741","121.50013","准四星商户","201","￥30","西餐","陆家嘴"
4088917,"Bvlgari(国金中心店)","世纪大道8号国金中心商场1楼L1-06","31.23663","121.50131","准四星商户","76","￥13659","珠宝饰品","陆家嘴"
4546519,"Puyi Optical(国金店)","世纪大道8号国金中心商场3楼L3-23室","31.23664","121.50131","四星商户","35","￥11225","眼镜店","陆家嘴"
13917135,"PANDORA(IFC国金中心)","世纪大道8号国金中心D座B1楼LG1-69室","31.2365","121.50102","四星商户","37","￥2569","珠宝饰品","陆家嘴"
1795375,"星之健身(陆家嘴店)","浦东南路500号国家开发银行大厦2楼","31.23699","121.51043","准四星商户","111","￥1088","健身中心","陆家嘴"
18254677,"果汁源鲜榨果汁","栖霞路58号","31.23609","121.51681","准五星商户","74","￥15","面包甜点","陆家嘴"
19210923,"全家便利店","陆家嘴西路168号正大广场B1楼21-22室","31.23674","121.49919","准四星商户","22","￥15","超市/便利店","陆家嘴"
4010089,"海上小喔(陆家嘴店)","崂山路707号","31.22031","121.5256","准四星商户","113","￥142","经济型","陆家嘴"
2052793,"Sushi Bar","富城路33号香格里拉大酒店紫金楼1楼","31.23566","121.4987","准四星商户","44","￥400","日本菜","陆家嘴"
17972979,"Candy Master糖果大师(正大广场店)","陆家嘴西路168号B2楼","31.23702","121.49867","四星商户","125","￥54","面包甜点","陆家嘴"
15082253,"中国移动通信(陆家嘴东路营业厅)","浦东南路500号","31.23709","121.51046","准四星商户","28","None","通信营业厅","陆家嘴"
8054751,"CHAUMET(国金中心店)","世纪大道8号上海国金中心商场1楼L1-38号","31.23647","121.50099","准四星商户","22","None","珠宝饰品","陆家嘴"
24056135,"宠物梦公馆","栖霞路51号-13","31.23612","121.51593","四星商户","43","None","宠物店","陆家嘴"
8876736,"文华西饼屋","浦东南路111号上海浦东文华东方酒店行政公寓大堂","31.24362","121.50727","四星商户","121","￥81","面包甜点","陆家嘴"
1862386,"卜蜂莲花(正大广场店)","陆家嘴西路168号正大广场B2楼","31.23701","121.50009","四星商户","1341","￥84","超市/便利店","陆家嘴"
20704707,"棒约翰比萨(陆家嘴店）(陆家嘴店)","上海市浦东新区陆家嘴环路1318号星展银行下沉式广场","31.2416","121.50383","四星商户","109","￥57","小吃快餐","陆家嘴"
21156618,"ETUDE HOUSE(日月光店)","徐家汇路618号B1","31.20575","121.46827","准四星商户","71","￥137","化妆品","陆家嘴"
8066272,"珍面轩(国金店)","世纪大道8号国金中心地下2楼LG2-B8、LG2-B9号铺","31.2374","121.50126","准四星商户","630","￥35","小吃快餐","陆家嘴"
502284,"牛奶棚(浦南店)","浦东南路599号","31.235","121.51279","四星商户","381","￥13","面包甜点","陆家嘴"
2122246,"金茂大厦","世纪大道88号","31.23528","121.50583","四星商户","671","￥80","城市观光","陆家嘴"
21644357,"东来福热气涮羊肉","南泉北路53","31.2376","121.51535","准四星商户","52","￥52","火锅","陆家嘴"
4708661,"万寿亭(世纪大道店)","世纪大道1600号陆家嘴商务广场裙楼","31.2233","121.53414","准四星商户","185","￥93","韩国料理","陆家嘴"
5726221,"Mothercare(正大广场店)","陆家嘴西路168号正大广场6楼09号铺","31.23674","121.49919","四星商户","45","￥701","亲子购物","陆家嘴"
5490848,"宁夏马氏清真牛羊肉店","钱仓路393号","31.23936","121.5213","四星商户","28","￥33","清真菜","陆家嘴"
4511781,"NIKE(IFC国金中心店)","世纪大道8号国金中心商场地下1楼LG1-45室","31.23664","121.50131","准四星商户","31","￥963","运动户外","陆家嘴"
2416537,"麦当劳(正大店)","陆家嘴西路168号正大广场5楼35-36号铺","31.23645","121.49897","准四星商户","465","￥21","小吃快餐","陆家嘴"
12591006,"诗泥SPA(正大广场店)","陆家嘴西路168号正大广场西区B1","31.23703","121.49928","准四星商户","194","￥390","美容/SPA","陆家嘴"
6433129,"汉庭酒店(陆家嘴东方明珠店)","浦东大道580号","31.24036","121.52166","准四星商户","47","￥215","经济型","陆家嘴"
4287855,"FURLA(国金中心店)","世纪大道8号国金中心商场3楼L3-28室","31.23663","121.50131","四星商户","48","￥2594","服饰鞋包","陆家嘴"
19366952,"NEWLUX新奢·奢侈品护理机构(陆家嘴金茂店)","世纪大道88号金茂大厦金茂时尚3楼06单元","31.23545","121.50587","四星商户","133","￥551","奢侈品护理","陆家嘴"
3837505,"罗森轻松熊主题店(上海环球金融中心店)","世纪大道100号上海环球金融中心B1F-5","31.23459","121.50769","四星商户","147","￥16","超市/便利店","陆家嘴"
8872129,"Gindaco章鱼烧(正大广场店)","陆家嘴西路168号正大广场B2楼食代馆","31.23739","121.50011","准四星商户","247","￥23","小吃快餐","陆家嘴"
4505768,"IL Colpo(国金店)","世纪大道8号国金中心商场4楼19-20号商铺","31.23662","121.50127","准四星商户","67","￥600","美发","陆家嘴"
24268616,"克拉哈勃游艇俱乐部","滨江大道4775号","31.21592","121.51272","四星商户","6","None","本帮江浙菜","陆家嘴"
22581824,"急事帮开锁疏通空调清洗","全市上门服务","31.21728","121.42414","四星商户","53","￥99","管道疏通","陆家嘴"
21767097,"可颂坊（陆家嘴店）(陆家嘴店)","上海市浦东新区世纪大道55号","31.23859","121.50224","三星商户","62","￥20","面包甜点","陆家嘴"
18064557,"SpicyGirl","昌邑路547号","31.24185","121.52107","准四星商户","7","None","其他","陆家嘴"
13706608,"香港日置名媛美容瘦身(正大广场店)","陆家嘴西路168号正大广场7楼09铺位","31.23609","121.49822","四星商户","161","￥4072","美容/SPA","陆家嘴"
2067322,"H&M(正大店)","陆家嘴西路168号正大广场1-2楼GF20-22-24B号铺","31.23703","121.50011","准四星商户","1102","￥188","服饰鞋包","陆家嘴"
561967,"鲜得来排骨年糕(浦东店)","即墨路180号","31.23712","121.51355","三星商户","404","￥18","小吃快餐","陆家嘴"
4221045,"鹏利辉盛阁公寓","银城中路600弄1号","31.23163","121.50284","四星商户","30","￥2187","五星级/豪华型","陆家嘴"
5376426,"品面","世纪大道8号国金中心商场LG2楼B座11号","31.2374","121.50126","准四星商户","326","￥37","小吃快餐","陆家嘴"
21314192,"思妍丽(正大广场店)","陆家嘴西路168号正大广场7楼26A","31.23703","121.49928","准四星商户","15","None","美容/SPA","陆家嘴"
6077374,"乐高创想世界","陆家嘴西路168号正大广场","31.23703","121.50011","三星商户","10","￥47","游乐园","陆家嘴"
18480148,"泽形象","东方路122号","31.23875","121.52012","四星商户","200","￥139","美发","陆家嘴"
2632495,"星巴克(环球金融店)","世纪大道100号101","31.23459","121.50769","四星商户","311","￥35","咖啡厅","陆家嘴"
17179558,"晶浦会陆家嘴婚礼中心(陆家嘴店)","花园石桥路33号花旗集团大厦4楼","31.23403","121.5008","四星商户","83","￥279","婚宴","陆家嘴"
501980,"德兴面馆(浦东店)","南泉北路1号","31.23888","121.51519","三星商户","267","￥22","小吃快餐","陆家嘴"
32645867,"TeemaTe(金茂店)","世纪大道88号金茂大厦B1","31.23526","121.50582","四星商户","30","￥45","咖啡厅","陆家嘴"
20673745,"浦江游览","浦东新区世博大道1200号旁世博源1区VIP码头","31.18675","121.49183","准四星商户","6","None","城市观光","陆家嘴"
18321006,"滨江壹号·婚宴","滨江大道富城路拾步街","0.0","0.0","四星商户","11","None","婚宴","陆家嘴"
18182355,"皇玺酒家·婚宴","浦东南路27号","31.24357","121.50639","四星商户","11","None","婚宴","陆家嘴"
5735884,"正宗湘菜馆","南泉北路1号","31.23887","121.51519","四星商户","52","￥98","湘菜","陆家嘴"
18097633,"O2 孕婴视觉摄影","浦三路277弄88号101室","31.19409","121.51506","四星商户","87","￥3598","孕妇写真","陆家嘴"
23595573,"EASYBOX STUDIO(陆家嘴店)","东泰路200弄盛大金磐1号楼701","31.23209","121.50673","四星商户","84","None","瑜伽","陆家嘴"
4664015,"Timberland(正大广场店)","陆家嘴西路168号正大广场4楼东区","31.23672","121.49919","四星商户","21","￥1000","服饰鞋包","陆家嘴"
5514481,"快乐柠檬(正大广场店)","陆家嘴西路168号正大广场5楼","31.2374","121.50012","准四星商户","253","￥12","面包甜点","陆家嘴"
18339614,"上海小南国·婚宴(正大广场店)","陆家嘴西路168号正大广场9楼","31.2374","121.50012","四星商户","33","￥200","婚宴","陆家嘴"
23595694,"足乐坊足浴保健按摩","昌邑路45号","31.24048","121.51327","四星商户","40","None","足疗按摩","陆家嘴"
21017888,"莎珂罗曼(莎珂罗曼陆家嘴店)","乳山路233号","31.23747","121.52654","准五星商户","63","None","美容/SPA","陆家嘴"
5880713,"Teenie Weenie(正大广场店)","陆家嘴西路168号正大广场2楼","31.2374","121.50012","四星商户","45","￥59","服饰鞋包","陆家嘴"
13660616,"天丽欢涮涮锅达人(陆家嘴店)","陆家嘴环路1398-1400号","31.24006","121.50134","三星商户","188","￥82","火锅","陆家嘴"
15116797,"ETUDE HOUSE","世纪大道8号上海国金中心C座地下二层LG2-44室","31.23647","121.50099","准四星商户","36","￥141","化妆品","陆家嘴"
32390823,"耶里夏利","陆家嘴环路","31.23945","121.50115","四星商户","14","None","新疆菜","陆家嘴"
27382052,"Cin Cin Fresco(正大广场一号店)","陆家嘴西路168号正大广场6楼08铺","31.23685","121.49926","准五星商户","38","￥38","面包甜点","陆家嘴"
19413514,"浦江三号婚礼会馆(东方薇婷)","滨江大道1658号","31.22959","121.50392","四星商户","8","None","婚宴","陆家嘴"
6059222,"游艇婚礼","丰和路1号","31.24063","121.49809","四星商户","6","None","婚宴","陆家嘴"
24915302,"too cool for school(正大店)","陆家嘴西路168号正大广场1F中庭","31.23636","121.49812","准四星商户","14","None","化妆品","陆家嘴"
2990365,"华氏大药房(正大店)","陆家嘴西路168号正大广场B2楼卜蜂莲花内","31.23702","121.50009","三星商户","24","None","药店","陆家嘴"
5331657,"王德传茶庄(世纪大道店)","世纪大道88号金茂时尚生活中心2楼2C-4、2C-5室","31.23511","121.50546","四星商户","27","￥72","其他","陆家嘴"
23020289,"Sweetizens微恬社(正大广场店)","正大广场5楼","31.23685","121.49926","四星商户","59","￥36","面包甜点","陆家嘴"
23216684,"郑信宫亚洲餐厅","富城路10号","31.23615","121.49752","四星商户","33","￥162","东南亚菜","陆家嘴"
22215473,"Roaster Cafe罗斯特现烘咖啡(陆家嘴软件园店)","峨山路111号之11","31.21463","121.53096","准五星商户","27","￥21","咖啡厅","陆家嘴"
8897560,"上海浦东文华东方酒店·婚宴","浦东南路111号文华东方酒店内","31.24364","121.5072","四星商户","10","None","婚宴","陆家嘴"
2371684,"喜喜月子会所(浦东江景馆)","昌邑路588弄金隆置地大厦1号17楼","31.24148","121.5216","四星商户","203","￥25385","孕产护理","陆家嘴"
5330988,"赛百味(国金中心店)","世纪大道8号国金中心LG2楼LG2-A7","31.23743","121.50126","四星商户","503","￥24","西餐","陆家嘴"
3891808,"Sky Lobby","世纪大道8号上海国金中心丽思卡尔顿酒店52楼","31.23591","121.50094","准四星商户","12","None","西餐","陆家嘴"
13926945,"红唇发艺","昌邑路41号","31.24042","121.51315","准五星商户","161","￥1122","美发","陆家嘴"
23587396,"名创优品(上海正大广场店)","陆家嘴正大广场B2","31.23685","121.49926","准四星商户","12","￥28","综合商场","陆家嘴"
19616511,"信州府","浦东大道599号","31.24114","121.5222","准四星商户","34","￥110","其他","陆家嘴"
23367176,"FairyWish贝乐喜美式儿童派对俱乐部(亲子活动策划定制)","商城路800号斯米克大厦606室","31.23031","121.51988","准四星商户","4","None","更多亲子服务","陆家嘴"
32630967,"水晖","银城中路68号时代金融中心2楼","31.24115","121.50662","四星商户","39","￥552","日本菜","陆家嘴"
22076703,"蜀渝火锅","东昌路422号（近浦成路）","31.23192","121.51058","准四星商户","40","￥50","川菜","陆家嘴"
15090386,"全方棋牌室","崂山路161号","31.23798","121.51705","四星商户","5","None","棋牌室","陆家嘴"
17179426,"海龙海鲜舫·婚宴","东昌路1号","31.23112","121.50224","准四星商户","173","￥265","婚宴","陆家嘴"
504845,"辣翻天川菜馆(栖霞路店)","栖霞路5号","31.23496","121.51318","准四星商户","506","￥49","川菜","陆家嘴"
18698997,"Moussy(正大广场店)","陆家嘴西路168号2F05A","31.23778","121.50044","四星商户","14","￥1199","服饰鞋包","陆家嘴"
18147948,"万信酒店自助餐厅","南洋泾路578号万信酒店1楼","31.23229","121.55619","准四星商户","45","￥99","自助餐","陆家嘴"
24099161,"外滩源壹号","陆家嘴西路56号","31.23829","121.50057","准四星商户","1","None","其他","陆家嘴"
4540131,"果之满满(时代金融中心店)","银城中路68号时代金融中心1楼106单元","31.24129","121.5065","准五星商户","245","￥17","面包甜点","陆家嘴"
10653236,"R&B 世界茶饮(正大广场店)","陆家嘴西路168号正大广场B2楼","31.23762","121.50017","四星商户","296","￥12","面包甜点","陆家嘴"
4114676,"碧玉蓝天顺峰大酒店","银城中路8号碧玉蓝天3-4楼","31.24162","121.50733","准四星商户","320","￥236","粤菜","陆家嘴"
13890340,"拿渡麻辣香锅(正大卜蜂莲花店)","陆家嘴西路168号正大广场地下二层卜蜂莲花","31.23744","121.50018","三星商户","136","￥55","川菜","陆家嘴"
1879930,"SEPHORA(丝芙兰上海正大广场店)","中国上海市浦东新区陆家嘴西路168号1楼47号","31.23703","121.50011","准四星商户","699","￥1015","化妆品","陆家嘴"
5269349,"伊藤家(汇亚店)","陆家嘴环路1233号汇亚大厦M楼","31.2409","121.50425","三星商户","166","￥56","日本菜","陆家嘴"
4223866,"Charles & Keith(正大广场店)","陆家嘴西路168号正大广场3楼-L43","31.2374","121.50012","准四星商户","127","￥388","服饰鞋包","陆家嘴"
27135691,"伊美源泉专业健康美容管理中心(伊美源泉祛痘 美白)","浦东新区银城中路8号中融碧玉蓝天大厦裙楼4层","31.24155","121.50733","准五星商户","21","None","美容/SPA","陆家嘴"
8984018,"TKF SPASSO(正大广场店)","陆家嘴西路168号正大广场5F54","31.2374","121.50012","四星商户","400","￥146","服饰鞋包","陆家嘴"
32404425,"Motion Fitness(动平衡健身工作室)","商城路301号申金大厦701室","31.22916","121.51038","四星商户","15","None","健身中心","陆家嘴"
8915063,"MIXXO(正大广场店)","陆家嘴西路168号正大广场2楼","31.23674","121.49919","准四星商户","80","￥319","服饰鞋包","陆家嘴"
8888535,"新记港式蒸点(正大广场店)","陆家嘴西路168号正大广场B2楼大食代内","31.2374","121.50012","三星商户","77","￥30","粤菜","陆家嘴"
18969711,"Fresh(正大广场店)","西路168号一楼01FL34","31.23734","121.50016","准四星商户","29","￥1334","化妆品","陆家嘴"
4668820,"99旅馆连锁(陆家嘴店)","崂山东路151号","31.23796","121.51683","准四星商户","50","￥146","经济型","陆家嘴"
23451820,"9英里私人飞行俱乐部","花园石桥路66号东亚银行大厦15楼","31.23418","121.50209","准四星商户","2","None","更多休闲娱乐","陆家嘴"
20928910,"ABS家居(正大广场店)","陆家嘴西路168号正大广场6楼6F60商铺","31.23703","121.50011","四星商户","93","￥58","家具家居","陆家嘴"
5702291,"乐智小天地(正大广场店)","陆家嘴西路168号正大广场6楼","31.23742","121.50014","三星商户","7","None","亲子购物","陆家嘴"
3276700,"上海海洋水族馆停车场","陆家嘴环路1388号","31.24119","121.50218","准四星商户","48","￥16","停车场","陆家嘴"
19597800,"香港日置名媛美容瘦身(环球店)","世纪大道100号环球金融中心B1层Will`s内","31.23498","121.50734","准四星商户","42","￥1026","美容/SPA","陆家嘴"
22994728,"水云涧养生spa","曹路镇上川路2251号","31.28289","121.67645","准四星商户","7","None","足疗按摩","陆家嘴"
8870642,"土司新语(正大广场店)","陆家嘴西路168号正大广场B2楼","31.2374","121.50012","准四星商户","486","￥38","东南亚菜","陆家嘴"
4080988,"Gucci(国金中心店)","陆家嘴世纪大道8号上海国金中心商场1楼L1-5店铺","31.23663","121.50131","准四星商户","101","￥4056","服饰鞋包","陆家嘴"
4127963,"火车头(陆家嘴店)","陆家嘴环路1318号星展银行大厦B1楼02号","31.2351","121.50775","三星商户","248","￥53","东南亚菜","陆家嘴"
4505330,"三叶草(国金中心店)","世纪大道8号国金中心商场B1楼LG1-33","31.23664","121.50131","准四星商户","31","￥1067","运动户外","陆家嘴"
22378323,"segafredo(中银大厦店)","浦东新区银城中路200号中银大厦1楼大堂","31.23834","121.50335","五星商户","64","￥32","咖啡厅","陆家嘴"
4505761,"Momi&Toys","世纪大道8号国金中心商场LG2楼LG2-A1","31.23663","121.50131","准四星商户","941","￥28","面包甜点","陆家嘴"
9321727,"唐香村风味烤鱼坊","南泉北路51号-4","31.23765","121.51532","准五星商户","73","￥50","川菜","陆家嘴"
4209889,"快乐柠檬(国金中心店)","世纪大道8号国金中心商场LG2楼","31.23663","121.50131","准四星商户","318","￥11","面包甜点","陆家嘴"
9974539,"水舞馔(上海环球金融中心店)","世纪大道100号上海环球金融中心B1层","31.2351","121.50775","四星商户","160","￥30","台湾菜","陆家嘴"
18238586,"茶人茗品","南洋泾路578号万信酒店2楼","31.23206","121.55667","四星商户","11","￥76","其他","陆家嘴"
11573780,"贝尼尔健身会所(昌邑路店)","昌邑路55弄22号","31.2411","121.51394","准四星商户","76","￥2367","健身中心","陆家嘴"
20802625,"滨江公园南滨江停车库","滨江大道2967号","31.23644","121.49649","准四星商户","4","None","停车场","陆家嘴"
3669571,"乐咖乐厨(小石桥路店)","小石桥路82号","31.2356","121.51344","四星商户","198","￥26","日本菜","陆家嘴"
4088905,"Celine(国金中心店)","世纪大道8号国金中心商场1楼19号店铺","31.23662","121.50127","准四星商户","40","￥17829","服饰鞋包","陆家嘴"
23979200,"LOHO眼镜生活(浦东正大广场店)","陆家嘴西路168号正大广场5F48E","31.23673","121.49916","四星商户","6","None","眼镜店","陆家嘴"
5173464,"为波客栈(浦东南路店)","浦东南路595弄14号1楼","31.23538","121.51333","三星商户","14","None","经济型","陆家嘴"
4088839,"HERMES(国金中心店)","世纪大道8号国金中心商场1楼L1-20","31.23663","121.50131","准四星商户","74","￥5636","服饰鞋包","陆家嘴"
5349056,"珍品粥坊","即墨路185号","31.23711","121.51383","准四星商户","22","￥11","小吃快餐","陆家嘴"
1866625,"Adidas(正大店)","陆家嘴西路168号正大广场7楼","31.2374","121.50013","准四星商户","31","￥765","运动户外","陆家嘴"
14915960,"蜜丝芭莉&丹邸好士(IFC国金中心店)","世纪大道8号上海国金中心D座2层L2-17-2＆3 shanghai IFC，NO.8 Century Avenue building D","31.23646","121.50103","四星商户","23","None","瘦身纤体","陆家嘴"
4088842,"PRADA(国金中心店)","世纪大道8号国金中心商场1楼L1-25","31.2361","121.50167","四星商户","116","￥14003","服饰鞋包","陆家嘴"
5434326,"快网网球俱乐部(国会球场)","滨江大道2727号上海国际会议中心内","31.23848","121.49643","四星商户","81","￥100","网球场","陆家嘴"
1879867,"屈臣氏(正大广场店)","陆家嘴西路168号正大广场B1楼","31.23703","121.49928","准四星商户","445","￥67","超市/便利店","陆家嘴"
5377522,"Snow Bar","滨江一号滨江富城路拾步街由隆花园","31.2318","121.50145","准四星商户","14","￥70","其他","陆家嘴"
8044482,"赛露芭(陆家嘴软件园店)","东方路1217号","31.21726","121.53002","准四星商户","155","￥40","西餐","陆家嘴"
16376674,"历史博物馆","世纪大道1号东方明珠塔内","31.23913","121.49966","四星商户","13","None","展馆展览","陆家嘴"
11580127,"KATE SPADE(国金中心店)","世纪大道8号国金中心LG1-50号","31.23646","121.50103","准四星商户","38","None","服饰鞋包","陆家嘴"
24760434,"周董好料","世纪大道100号环球金融中心B2","31.23398","121.50685","准四星商户","1","None","本帮江浙菜","陆家嘴"
15118283,"Italian Tomato(国金中心店)","世纪大道8号国金中心商场地下二层LG2-C-3室","31.23664","121.50131","准四星商户","235","￥49","面包甜点","陆家嘴"
19685160,"ME美甲沙龙","栖霞路51号-2","31.23603","121.51576","准四星商户","131","￥88","美甲","陆家嘴"
4168989,"i.t(国金中心店)","世纪大道8号国金中心商场B2楼LG2-17","31.23664","121.50131","准四星商户","6","None","服饰鞋包","陆家嘴"
4231006,"娇韵诗SPA(SPA-国金店)","世纪大道8号国金中心D座LG1-60","31.23646","121.50103","准四星商户","27","￥743","美容/SPA","陆家嘴"
8825402,"周生生珠宝(正大广场店)","陆家嘴西路168号正大广场1楼","31.23703","121.50011","四星商户","27","￥2067","婚戒首饰","陆家嘴"
17157380,"星巴克(正大3店)","浦东陆家嘴西路168号正大广场B2-05单元","31.23744","121.50018","四星商户","52","￥33","咖啡厅","陆家嘴"
6213993,"浦江潮","滨江大道1850号","31.24393","121.5063","准四星商户","13","￥479","本帮江浙菜","陆家嘴"
4088893,"Dior(国金店)","世纪大道8号国金中心商场1楼L1-29","31.23663","121.50131","四星商户","67","￥19240","服饰鞋包","陆家嘴"
27012744,"海鸥坊","和丰路","31.24105","121.49771","三星商户","2","None","海鲜","陆家嘴"
6001682,"豆腐花大饼油条摊头","乳山路136号","31.23597","121.52391","准四星商户","20","￥6","小吃快餐","陆家嘴"
3921718,"The Music Room","世纪大道100号上海环球金融中心92楼","31.23459","121.50769","准四星商户","26","￥151","其他","陆家嘴"
27490317,"焦大王私房盒饭陆家嘴站","陆家嘴东路161号","31.23751","121.50888","准五星商户","15","￥35","小吃快餐","陆家嘴"
32327725,"MISS CC西小姐私房燕窝","浦东南路111号文华东方酒店商铺117号","31.24359","121.50732","四星商户","11","None","面包甜点","陆家嘴"
8878134,"冰期时代(正大广场店)","陆家嘴西路168号正大广场B2楼大食代美食广场内","31.2374","121.50012","准四星商户","226","￥21","面包甜点","陆家嘴"
19573915,"9分小町(即墨路店)","即墨路150号","31.23773","121.51325","四星商户","27","￥15","咖啡厅","陆家嘴"
4186864,"华氏大药房(上海环球金融中心店)","世纪大道100号上海环球金融中心3楼","31.2351","121.50775","三星商户","25","￥60","药店","陆家嘴"
1795234,"陆家嘴中心绿地","陆家嘴东路160号","31.23911","121.50515","准五星商户","878","￥6","自然风光","陆家嘴"
26997005,"苏格一家泡芙工坊(上海陆家嘴正大广场店)","陆家嘴西路168号正大广场四楼","31.23685","121.49926","准四星商户","28","￥20","面包甜点","陆家嘴"
23354363,"关西妈妈&荣桥筋","国金中心LG2B3-B5","31.23591","121.50102","三星商户","126","￥38","日本菜","陆家嘴"
23873304,"维多利亚皇家游艇宴","陆家嘴滨江大道3738号诺莱仕游艇码头","31.22904","121.50441","四星商户","3","None","西餐","陆家嘴"
22978055,"锦尚成都小吃","浦东大道140弄","31.239","121.51512","准四星商户","13","None","川菜","陆家嘴"
18583246,"杨铭宇黄焖鸡米饭(东昌路店)","东昌路515号","31.23256","121.5117","四星商户","78","￥20","小吃快餐","陆家嘴"
2001871,"轮渡线(东金线)","东昌路渡口-金陵东路渡口","31.23013","121.50334","准五星商户","180","￥2","交通","陆家嘴"
19006124,"港开茶餐厅","世纪大道55号世纪天桥2楼-2","31.23848","121.50147","准四星商户","359","￥55","粤菜","陆家嘴"
4088920,"Bottega Veneta(国金中心店)","世纪大道8号国金中心商场1楼L1-03","31.23663","121.50131","四星商户","68","￥5705","服饰鞋包","陆家嘴"
5439031,"赛百味(浦发大厦店)","浦东南路588号浦发大厦1楼","31.23526","121.51171","四星商户","198","￥20","西餐","陆家嘴"
27309186,"淳味王麻辣香锅(金茂大厦店)","世纪大道金茂大厦B1-22","31.23526","121.50582","四星商户","6","None","川菜","陆家嘴"
8884248,"蜀记麻辣香锅","陆家嘴西路168号正大广场B2楼食代馆内","31.2374","121.50012","三星商户","303","￥50","川菜","陆家嘴"
20654425,"LAMY(国金中心旗舰店)","世纪大道8号国金中心LG1-86","31.23646","121.50103","准四星商户","27","￥752","更多购物场所","陆家嘴"
18233844,"东方音乐梦工厂(浦东店)","东方路1363号10C室","31.21316","121.52958","四星商户","29","￥483","音乐","陆家嘴"
23977441,"星期五翻糖蛋糕(国金ifc店)","世纪大道8号","31.2367","121.50125","准四星商户","None","None","面包甜点","陆家嘴"
10661818,"汉宫酒家(银城中路店)","银城中路200号中银大厦6楼","31.23884","121.50324","四星商户","30","￥27","本帮江浙菜","陆家嘴"
23925604,"紫颖专业美胸丰胸(正大店)","陆家嘴西路168号正大广场7楼","31.23685","121.49926","四星商户","28","None","美容/SPA","陆家嘴"
19803618,"sandro","世纪大道8号国金中心商场3楼3-06","31.2374","121.50126","三星商户","6","None","服饰鞋包","陆家嘴"
23220493,"randa","世纪大道100号环球金融中心217-1","31.23398","121.50685","三星商户","4","None","服饰鞋包","陆家嘴"
1901986,"星巴克(信息大厦店)","世纪大道211号","31.23555","121.51062","准四星商户","102","￥31","咖啡厅","陆家嘴"
27386725,"上海浦东四季酒店","陆家嘴世纪大道","31.23432","121.51004","准四星商户","None","None","经济型","陆家嘴"
6340367,"老弄堂上海菜","银城西路","31.23674","121.49919","三星商户","4","None","本帮江浙菜","陆家嘴"
3012790,"一代眼镜(正大店)","陆家嘴西路168号正大广场B2楼","31.23704","121.50012","准四星商户","71","￥148","眼镜店","陆家嘴"
27179857,"上海环球金融中心94+97+100层观光厅","世纪大道100号","31.23448","121.50769","准四星商户","1","None","商务楼","陆家嘴"
5356027,"Kiehl's(正大广场店)","陆家嘴西路168号正大广场1楼","31.23703","121.50011","准四星商户","111","￥475","化妆品","陆家嘴"
3003511,"东海宾馆","浦东大道281号","31.23986","121.51625","准四星商户","59","￥430","三星级/舒适型","陆家嘴"
18339610,"俏江南·婚宴(正大广场店)","陆家嘴西路168号正大广场10楼","31.23672","121.49919","五星商户","45","￥175","婚宴","陆家嘴"
8872865,"中国联通(陆家嘴营业厅)","世纪大道55号东方浮庭3楼","31.23847","121.50226","准四星商户","26","￥1189","通信营业厅","陆家嘴"
2514892,"爱茜茜里意大利健康冰淇淋(东方明珠店)","世纪大道1号东方明珠电视塔零米大厅C1区","31.23913","121.49966","四星商户","109","￥35","面包甜点","陆家嘴"
27025417,"弄堂里","陆家嘴浦东南路","0.0","0.0","该商户暂无星级","None","None","本帮江浙菜","陆家嘴"
14896045,"Only Miss创意蛋糕&巧克力定制(陆家嘴店)","陆家嘴","31.23889","121.50331","三星商户","2","None","DIY手工坊","陆家嘴"
21214142,"屈臣氏(浦东国金店)","世纪大道8号D座B2楼LG2-10室及11室","31.23605","121.50306","准四星商户","6","None","超市/便利店","陆家嘴"
6253869,"星巴克(未来资产大厦店)","陆家嘴环路166号102室","31.23529","121.50016","四星商户","56","￥35","咖啡厅","陆家嘴"
8889913,"漂亮石头火锅(正大广场店)","陆家嘴西路168号正大广场B2楼大食代","31.2374","121.50012","二星商户","220","￥59","火锅","陆家嘴"
2676223,"蒙奇奇娃娃(正大店)","陆家嘴西路168号正大广场5楼西侧临5F03铺(靠廊亦舫)","31.23672","121.49919","四星商户","295","￥245","亲子购物","陆家嘴"
19210921,"全家便利店","富城路99号B1楼B-3A室","31.23455","121.49964","准四星商户","8","None","超市/便利店","陆家嘴"
5275387,"LAMY(正大广场店)","陆家嘴西路168号正大广场四楼M17-B凌美专柜","31.23707","121.49984","准四星商户","19","￥406","更多购物场所","陆家嘴"
1917076,"上海本帮菜","浦东大道10号","31.23855","121.51416","准四星商户","8","None","本帮江浙菜","陆家嘴"
5702429,"美路美国高端月子会所","花园石桥路33号花旗集团大厦23楼","31.23405","121.5007","准四星商户","7","￥302667","孕产护理","陆家嘴"
18038508,"酷圣石(正大广场店)","陆家嘴西路168号B2楼S区-05、06","31.23661","121.50034","四星商户","189","￥39","面包甜点","陆家嘴"
5307352,"光头烧烤","崂山路47号","31.23788","121.51543","准四星商户","25","￥61","烧烤","陆家嘴"
24077779,"SOSALAD","世纪大道88号裙房金茂时尚生活中心2c－06","31.23509","121.50546","五星商户","17","￥31","西餐","陆家嘴"
23090984,"星空琴行(正大广场店)","陆家嘴西路168号07F层7F16","31.23727","121.499","四星商户","4","None","音乐","陆家嘴"
21586963,"ゞ特色走鬼烧烤? ''","浦东大道荣成路2号","31.24005","121.51779","四星商户","5","None","烧烤","陆家嘴"
4224334,"CONVERSE(国金中心店)","世纪大道8号国金中心商场B1楼LG1-32","31.23742","121.50135","准四星商户","33","￥495","运动户外","陆家嘴"
5246257,"COSTA COFFEE(陆家嘴店)","陆家嘴环路1318号星展银行大厦B104号商铺","31.24177","121.50361","准四星商户","65","￥35","咖啡厅","陆家嘴"
1867303,"Skechers(正大店)","陆家嘴西路168号正大广场1楼GF26E号铺","31.23703","121.50011","准四星商户","47","￥507","服饰鞋包","陆家嘴"
8038317,"每日新鲜水果吧(上海环球金融中心店)","世纪大道100号上海环球金融中心B1楼内","31.23457","121.50796","准五星商户","375","￥21","面包甜点","陆家嘴"
22544148,"TIE'S  Kiddo一站式会馆·宝宝宴喜宴生日派对(陆家嘴滨江店)","滨江大道3888号","31.2252","121.50804","四星商户","33","None","更多亲子服务","八佰伴"
4127655,"欧舒丹(国金中心店)","陆家嘴世纪大道8号上海国金中心商场LG1楼62号","31.23697","121.50164","准四星商户","44","￥441","化妆品","陆家嘴"
1796626,"浦东第一图书馆","东方路38号","31.24175","121.51891","准四星商户","84","None","文化艺术","陆家嘴"
22024322,"Google 员工餐厅","环球金融中心 61 层","31.23518","121.5075","三星商户","40","None","小吃快餐","陆家嘴"
6382296,"丽思卡尔顿多功能厅","世纪大道8号上海国金中心丽思卡尔顿酒店内","31.23661","121.50125","五星商户","67","￥521","婚宴","陆家嘴"
22944466,"乐堂口私房茶饮(浦东南路店)","浦东南路589号","31.23572","121.51232","四星商户","44","￥12","面包甜点","陆家嘴"
18559638,"东方明珠+历史陈列馆+浦江豪华游","江畔东方明珠","31.23984","121.49968","准四星商户","3","None","展馆展览","陆家嘴"
4536585,"全家便利店(陆家嘴环路二店)","陆家嘴环路1318号B107室","31.24177","121.50361","准四星商户","25","￥11","超市/便利店","陆家嘴"
9385547,"茶驿站","南泉北路162号-6","31.23685","121.51589","四星商户","43","￥11","面包甜点","陆家嘴"
27147200,"减餐Food Minus(陆家嘴店)","陆家嘴站","31.24227","121.54257","准五星商户","14","￥27","其他","陆家嘴"
27033904,"EnerJoy 私人健身俱乐部","商城路665号陆家嘴1885文化中心1栋","31.23154","121.51818","四星商户","22","None","健身中心","八佰伴"
2620789,"Pretty Valley(正大广场店)","陆家嘴西路168号正大广场B1","31.23703","121.49928","准四星商户","35","￥312","美甲","陆家嘴"
20953694,"gii珠宝下午茶","滨江大道张杨路","31.22353","121.50937","准四星商户","4","None","咖啡厅","陆家嘴"
14809720,"兰馨休闲会所","昌邑路525-1号","31.24194","121.51997","三星商户","1","None","洗浴","陆家嘴"
24411792,"绝味鸭脖(东方明珠店)","陆家嘴环路2号线地铁站","31.23819","121.50057","准四星商户","3","None","小吃快餐","陆家嘴"
5695668,"蒋记品味麻辣捞烫","南泉北路159号","31.23673","121.5158","准四星商户","102","￥17","小吃快餐","陆家嘴"
5390254,"太平洋咖啡(太平金融店)","银城中路488号太平金融大厦1楼03商铺","31.23418","121.50353","准四星商户","69","￥31","咖啡厅","陆家嘴"
22546923,"Cocoyoyo婴童生活(正大广场店)","陆家嘴西路168号","31.23726","121.49903","该商户暂无星级","3","None","更多亲子服务","陆家嘴"
8968967,"Whittard Of Chelsea(ifc店)","世纪大道8号国金中心商场4楼L4-12","31.23664","121.50131","准四星商户","95","￥125","其他","陆家嘴"
4287841,"RIMOWA(国金中心店)","世纪大道8号国金中心商场3楼L2-48室靠Dior男装","31.23663","121.50131","准四星商户","15","￥7503","服饰鞋包","陆家嘴"
3125260,"Mango(正大广场店)","陆家嘴西路168号正大广场２楼25A-D号","31.23703","121.50011","准四星商户","110","￥354","服饰鞋包","陆家嘴"
21137221,"御景苑酒店公寓","浦东大道599号6楼600号","31.2411","121.5222","三星商户","1","None","四星级/高档型","陆家嘴"
2845231,"川乡小厨","栖霞路35号","31.23559","121.51458","准四星商户","36","￥34","川菜","陆家嘴"
17147715,"海上盛宴","浦东大道281号东海宾馆2楼","31.23985","121.51633","准四星商户","68","￥91","其他","陆家嘴"
9072782,"讃岐濑户乌冬面(陆家嘴软件园店)","东方路陆家嘴软件园峨山路91弄20号","31.21455","121.53229","准四星商户","145","￥28","日本菜","陆家嘴"
501629,"月亮生煎大王","崂山路80号101室","31.23812","121.51615","准四星商户","514","￥16","小吃快餐","陆家嘴"
23957705,"爱微卡","浦东南路597号","31.23508","121.51275","四星商户","21","￥28","其他","陆家嘴"
4185838,"CLUB MONACO(国金中心店)","世纪大道8号上海国金中心IFC商场LG1-08号店铺","31.23594","121.50306","四星商户","48","￥1448","服饰鞋包","陆家嘴"
3716749,"鱼香阁","滨江大道2727号东方滨江大酒店11楼","31.23922","121.49684","准四星商户","16","None","其他","陆家嘴"
3813286,"全家便利店(上海环球金融中心店)","世纪大道100号215室","31.23459","121.50769","准四星商户","74","￥16","超市/便利店","陆家嘴"
17680939,"华伦天奴(国金中心店)","世纪大道8号国金中心LG1","31.2365","121.50102","准四星商户","7","None","服饰鞋包","陆家嘴"
2406058,"苏州柳记藏书羊肉馆(栖霞路店)","栖霞路91号","31.23699","121.51832","准四星商户","45","￥24","小吃快餐","陆家嘴"
13891119,"VIVITIX SANRIO(正大广场店)","陆家嘴西路168号正大广场5楼","31.23703","121.50011","三星商户","2","None","亲子购物","陆家嘴"
19722114,"上海中粮海景壹号酒店公寓","银城中路600弄3号楼","31.23182","121.50403","三星商户","6","None","公寓式酒店","陆家嘴"
24767718,"沙和尚云南米线小火锅(栖霞路店)","栖霞路90号(近崂山路","31.23653","121.51801","准四星商户","10","￥22","小吃快餐","陆家嘴"
8870639,"拉面玩家(正大广场店)","陆家嘴西路168号正大广场B2楼","31.2374","121.50012","三星商户","231","￥43","小吃快餐","陆家嘴"
4287818,"亮视点(国金中心店)","世纪大道8号上海国金中心D座LG2-35号商铺","31.23662","121.50127","准四星商户","41","￥5844","眼镜店","陆家嘴"
4178753,"功夫粥店","浦东南路555号","31.23608","121.51219","三星商户","92","￥13","小吃快餐","陆家嘴"
22619366,"人在茶在之南洋茶铺(东昌路店)","东昌路451号","31.23215","121.51073","准四星商户","47","￥13","面包甜点","陆家嘴"
6592720,"点沁(陆家嘴恒生银行店)","陆家嘴环路1000号恒生大厦2楼","31.24028","121.50736","准四星商户","214","￥32","小吃快餐","陆家嘴"
8927874,"故乡屋(正大广场店)","陆家嘴西路168号正大广场B2楼大食代美食广场内","31.2374","121.50012","准四星商户","96","￥29","韩国料理","陆家嘴"
3685240,"唐饼家(陆家嘴店)","陆家嘴西路168号正大广场B2楼卜蜂莲花内","31.23728","121.49953","准四星商户","112","￥28","食品茶酒","陆家嘴"
4504259,"味之都(陆家嘴店)","世纪大道55号东方浮庭2F-3室","31.23847","121.50226","三星商户","123","￥28","小吃快餐","陆家嘴"
4619181,"星巴克(东方浮庭店)","陆家嘴中心区世纪大道55号“东方浮庭”2F-4室","31.23847","121.50226","准四星商户","124","￥32","咖啡厅","陆家嘴"
23407810,"coco都可茶饮(正大广场店)","陆家嘴西路168号正大广场B2","31.23685","121.49926","准四星商户","19","￥9","面包甜点","陆家嘴"
17179934,"老上海8号餐厅·婚宴","世纪大道1号东方明珠8号门国际新闻中心1楼","31.23913","121.49966","准四星商户","33","￥176","婚宴","陆家嘴"
17686606,"周大福珠宝金行(正大广场店)","陆家嘴西路168号正大广场1楼","31.23703","121.50011","四星商户","7","￥5688","婚戒首饰","陆家嘴"
22549416,"积木魔幻乐园","陆家嘴西路168号正大广场9楼","31.2374","121.50012","四星商户","1517","￥45","文化艺术","陆家嘴"
17634777,"阿姨奶茶(南泉北路店)","南泉北路17号","31.23862","121.51529","四星商户","83","￥7","面包甜点","陆家嘴"
6019014,"上海中心大厦","银城中路501号","31.23409","121.50625","准四星商户","1","None","商务楼","陆家嘴"
10018062,"东方私宴","滨江大道1658号","31.24404","121.52091","准四星商户","69","￥262","粤菜","陆家嘴"
3528877,"溢修瑜伽(陆家嘴店)","银城中路68号时代金融中心4楼401室","31.24128","121.5067","四星商户","276","￥1761","瑜伽","陆家嘴"
22421584,"Michael Kors","国金中心LG1","31.23591","121.50102","三星商户","14","None","服饰鞋包","陆家嘴"
15989809,"M.A.C","陆家嘴西路168号1楼01FL01B室","31.23691","121.49923","准四星商户","26","￥406","化妆品","陆家嘴"
14727553,"五饼二鱼韩国料理","世纪大道1600号陆家嘴商务广场B1","31.22389","121.53447","准四星商户","15","￥25","韩国料理","陆家嘴"
24900105,"好乐迪","三湘四季花城","31.24187","121.50524","准四星商户","1","None","KTV","陆家嘴"
6162185,"果之满满(太平金融中心店)","银城中路488号太平金融中心1楼102A室","31.23427","121.50351","四星商户","94","￥15","面包甜点","陆家嘴"
23402634,"浦东丽思卡尔顿酒店水疗中心","世纪大道8号,上海国金中心,上海浦东丽思卡尔顿酒店55层","31.23591","121.50095","准四星商户","1","None","美容/SPA","陆家嘴"
13933347,"沈大成月饼(正大广场店)","陆家嘴西路168号正大广场B2楼","31.23707","121.49932","三星商户","33","￥8","小吃快餐","陆家嘴"
17179911,"海逸海鲜·婚宴(滨江大道店)","滨江大道2450号","31.24282","121.50218","四星商户","10","None","婚宴","陆家嘴"
17175587,"招商银行大厦","浦东南路360号","31.23909","121.50948","准四星商户","1","None","商务楼","陆家嘴"
8855828,"Kiss果吻(正大广场店)","陆家嘴西路168号正大广场B1楼","31.23749","121.50051","四星商户","582","￥20","面包甜点","陆家嘴"
18339611,"廊亦舫酒楼·婚宴(正大店)","陆家嘴西路168号正大广场5楼23号铺","31.23703","121.50011","四星商户","41","￥172","婚宴","陆家嘴"
6853546,"老船长餐厅","浦东南路500号1楼大厅","31.23684","121.51038","准四星商户","4","None","其他","陆家嘴"
18178585,"N9Club","昌邑路565号","31.24176","121.52207","准四星商户","2","None","其他","陆家嘴"
4088932,"Agnes b(国金中心店)","世纪大道8号国际金融中心商场3楼L3-15","31.23635","121.50244","准四星商户","26","￥1420","服饰鞋包","陆家嘴"
22546934,"baby-land(正大店)","陆家嘴西路168号","31.23726","121.49903","三星商户","None","None","亲子游乐","陆家嘴"
4683319,"Moschino(国金中心店)","世纪大道8号国金中心2楼","31.23646","121.50103","准四星商户","6","None","服饰鞋包","陆家嘴"
8878886,"越牛PHO1986","陆家嘴西路168号正大广场B2楼食代馆内","31.23741","121.50013","准四星商户","18","￥32","东南亚菜","陆家嘴"
3219790,"老城隍庙小吃","陆家嘴西路195号","31.23803","121.49935","三星商户","14","￥19","小吃快餐","陆家嘴"
4672675,"THOMAS SABO(国金中心店)","世纪大道8号国金中心LG1楼LG1-21室","31.23646","121.50103","准四星商户","22","￥1152","珠宝饰品","陆家嘴"
6201025,"Dickies(陆家嘴西路店)","陆家嘴西路168号正大广场5楼","31.23674","121.49919","准四星商户","11","None","服饰鞋包","陆家嘴"
579496,"粥天粥地(东方明珠店)","丰和路1号世纪金盆大酒店大堂偏厅","31.24032","121.49863","三星商户","49","￥35","小吃快餐","陆家嘴"
21678673,"哈根达斯","国金中心商场LG1-39","31.23764","121.50137","准四星商户","2","None","面包甜点","陆家嘴"
6206855,"现代书店Boocup(上海环球金融中心店)","世纪大道100号上海环球金融中心3楼","31.23457","121.50769","四星商户","14","None","书店","陆家嘴"
4089031,"Miu Miu(国际金融中心店)","世纪大道8号国金中心商场1楼L1-26","31.23663","121.50131","四星商户","60","￥6544","服饰鞋包","陆家嘴"
20778990,"台湾正宗卤肉饭","浦东新区陆家嘴西路168号B2","31.23702","121.49867","三星商户","34","￥34","小吃快餐","陆家嘴"
23570899,"木子美甲连锁店(原宿分店)","东昌路568号","31.23282","121.51244","准四星商户","31","￥75","美甲","陆家嘴"
587080,"二子龙虾(东昌店)","南泉北路51号","31.23805","121.51571","三星商户","223","￥78","小吃快餐","陆家嘴"
4088983,"MARC BY MARC JACOBS(国金店)","世纪大道8号上海国金中心商场3楼L3-12号铺","31.23647","121.50099","准四星商户","26","￥1318","服饰鞋包","陆家嘴"
3261769,"滨江码头名庄荟","滨江大道2852号","31.2406","121.49681","准四星商户","93","￥224","粤菜","陆家嘴"
20842809,"9分小町(峨山路店)","浦东新区峨山路91弄101号","31.2173","121.53143","四星商户","18","￥12","咖啡厅","陆家嘴"
8726938,"港龙茶记","浦东大道140弄27号","31.23847","121.51461","准四星商户","94","￥11","面包甜点","陆家嘴"
4270328,"星巴克(金茂大厦店)","世纪大道88号裙房2楼2C-08、10铺位","31.2353","121.50576","准四星商户","103","￥33","咖啡厅","陆家嘴"
